[{"name": "Aber", "latitude": 51.57496069, "longitude": -3.229838935}, {"name": "Abercynon", "latitude": 51.644706, "longitude": -3.327000754}, {"name": "Aberdare", "latitude": 51.71505747, "longitude": -3.443099147}, {"name": "Aberdovey", "latitude": 52.54397223, "longitude": -4.057080835}, {"name": "Abererch", "latitude": 52.89860046, "longitude": -4.374195955}, {"name": "Abergavenny", "latitude": 51.81669124, "longitude": -3.009664242}, {"name": "Abergele & Pensarn", "latitude": 53.29459094, "longitude": -3.582632062}, {"name": "Aberystwyth", "latitude": 52.41405692, "longitude": -4.081908698}, {"name": "Ammanford", "latitude": 51.79597767, "longitude": -3.996765792}, {"name": "Baglan", "latitude": 51.61553822, "longitude": -3.811162313}, {"name": "Bangor (Gwynedd)", "latitude": 53.22229978, "longitude": -4.135891358}, {"name": "Bargoed", "latitude": 51.69230767, "longitude": -3.229689376}, {"name": "Barmouth", "latitude": 52.7229113, "longitude": -4.056608531}, {"name": "Barry", "latitude": 51.39678181, "longitude": -3.284997567}, {"name": "Barry Docks", "latitude": 51.40244097, "longitude": -3.260715837}, {"name": "Barry Island", "latitude": 51.39241248, "longitude": -3.273376317}, {"name": "Betws-y-Coed", "latitude": 53.092088, "longitude": -3.800879188}, {"name": "Birchgrove", "latitude": 51.52174013, "longitude": -3.203468175}, {"name": "Blaenau Ffestiniog", "latitude": 52.99456764, "longitude": -3.938602387}, {"name": "Bodorgan", "latitude": 53.20431918, "longitude": -4.418022835}, {"name": "Borth", "latitude": 52.4910411, "longitude": -4.050190046}, {"name": "Bow Street", "latitude": 52.4392199, "longitude": -4.0319599}, {"name": "Bridgend", "latitude": 51.50697643, "longitude": -3.575296481}, {"name": "Brithdir", "latitude": 51.71030148, "longitude": -3.2287299}, {"name": "Briton Ferry", "latitude": 51.63789409, "longitude": -3.819278922}, {"name": "Broome", "latitude": 52.42278098, "longitude": -2.885217916}, {"name": "Buckley", "latitude": 53.16304869, "longitude": -3.05593636}, {"name": "Bucknell", "latitude": 52.3575573, "longitude": -2.948524727}, {"name": "Builth Road", "latitude": 52.16932565, "longitude": -3.427045119}, {"name": "Bynea", "latitude": 51.67203157, "longitude": -4.098900663}, {"name": "Cadoxton", "latitude": 51.41227913, "longitude": -3.248907469}, {"name": "Caergwrle", "latitude": 53.10788341, "longitude": -3.032923324}, {"name": "Caerphilly", "latitude": 51.57157215, "longitude": -3.218492147}, {"name": "Caersws", "latitude": 52.51613735, "longitude": -3.43250893}, {"name": "Caldicot", "latitude": 51.58478457, "longitude": -2.760585172}, {"name": "Cardiff Bay", "latitude": 51.46710937, "longitude": -3.16642678}, {"name": "Cardiff Central", "latitude": 51.47602662, "longitude": -3.179311548}, {"name": "Cardiff Queen Street", "latitude": 51.48196277, "longitude": -3.170204472}, {"name": "Carmarthen", "latitude": 51.85335799, "longitude": -4.30598577}, {"name": "Cathays", "latitude": 51.48890064, "longitude": -3.178693049}, {"name": "Cefn-y-Bedd", "latitude": 53.09881997, "longitude": -3.031063286}, {"name": "Chepstow", "latitude": 51.64017494, "longitude": -2.671914115}, {"name": "Chester", "latitude": 53.19683958, "longitude": -2.880125588}, {"name": "Chirk", "latitude": 52.93310252, "longitude": -3.065655601}, {"name": "Church Stretton", "latitude": 52.53743385, "longitude": -2.803701777}, {"name": "Cilmeri", "latitude": 52.15053253, "longitude": -3.456554526}, {"name": "Clarbeston Road", "latitude": 51.85167193, "longitude": -4.883574493}, {"name": "Clunderwen", "latitude": 51.84054563, "longitude": -4.731878812}, {"name": "Cogan", "latitude": 51.4459927, "longitude": -3.189100075}, {"name": "Colwyn Bay", "latitude": 53.29637709, "longitude": -3.725430748}, {"name": "Conwy", "latitude": 53.28011971, "longitude": -3.830541495}, {"name": "Coryton", "latitude": 51.52036973, "longitude": -3.231538797}, {"name": "Craven Arms", "latitude": 52.44201187, "longitude": -2.837052833}, {"name": "Criccieth", "latitude": 52.91842819, "longitude": -4.237528403}, {"name": "Crosskeys", "latitude": 51.62089796, "longitude": -3.126191667}, {"name": "Cwmbach", "latitude": 51.70192641, "longitude": -3.413738026}, {"name": "Cwmbran", "latitude": 51.65658282, "longitude": -3.01622181}, {"name": "Cynghordy", "latitude": 52.05150756, "longitude": -3.748233148}, {"name": "Danescourt", "latitude": 51.50050789, "longitude": -3.233928033}, {"name": "Deganwy", "latitude": 53.29476587, "longitude": -3.833403597}, {"name": "Dinas (Rhondda)", "latitude": 51.61783077, "longitude": -3.437557147}, {"name": "Dinas Powys", "latitude": 51.4316643, "longitude": -3.218362695}, {"name": "Dingle Road", "latitude": 51.44005367, "longitude": -3.180614958}, {"name": "Dolau", "latitude": 52.29535707, "longitude": -3.263627535}, {"name": "Dolgarrog", "latitude": 53.18636329, "longitude": -3.822653706}, {"name": "Dolwyddelan", "latitude": 53.05203317, "longitude": -3.885137755}, {"name": "Dovey Junction", "latitude": 52.56437479, "longitude": -3.923911977}, {"name": "Dublin Ferryport", "latitude": 53.3494426, "longitude": -6.2600825}, {"name": "Dyffryn Ardudwy", "latitude": 52.78886514, "longitude": -4.104657014}, {"name": "Eastbrook", "latitude": 51.43763559, "longitude": -3.206148195}, {"name": "Ebbw Vale Parkway", "latitude": 51.75714374, "longitude": -3.196111233}, {"name": "Ebbw Vale Town", "latitude": 51.777252, "longitude": -3.202288}, {"name": "Energlyn & Churchill Park", "latitude": 51.58376, "longitude": -3.22973}, {"name": "Fairbourne", "latitude": 52.69606153, "longitude": -4.049426098}, {"name": "Fairwater", "latitude": 51.49390844, "longitude": -3.233850662}, {"name": "Fernhill", "latitude": 51.68649362, "longitude": -3.395897173}, {"name": "Ferryside", "latitude": 51.76837024, "longitude": -4.369485229}, {"name": "Ffairfach", "latitude": 51.87247957, "longitude": -3.992889832}, {"name": "Fishguard & Goodwick", "latitude": 52.004112, "longitude": -4.9948377}, {"name": "Fishguard Harbour", "latitude": 52.01155417, "longitude": -4.985670915}, {"name": "Flint", "latitude": 53.24953963, "longitude": -3.133005514}, {"name": "Frodsham", "latitude": 53.29587868, "longitude": -2.723117879}, {"name": "Garth (Bridgend County)", "latitude": 51.5964522, "longitude": -3.64147185}, {"name": "Garth (Powys)", "latitude": 52.13324795, "longitude": -3.529923047}, {"name": "Gilfach Fargoed", "latitude": 51.68424748, "longitude": -3.226577833}, {"name": "Glan Conwy", "latitude": 53.26743904, "longitude": -3.797743818}, {"name": "Gobowen", "latitude": 52.89353933, "longitude": -3.035995531}, {"name": "Gowerton", "latitude": 51.6487243, "longitude": -4.035967269}, {"name": "Grangetown (Cardiff)", "latitude": 51.46703478, "longitude": -3.189071128}, {"name": "Gwersyllt", "latitude": 53.07259351, "longitude": -3.017898398}, {"name": "Harlech", "latitude": 52.86134439, "longitude": -4.109203586}, {"name": "Haverfordwest", "latitude": 51.80263756, "longitude": -4.960232375}, {"name": "Hawarden", "latitude": 53.18537204, "longitude": -3.032090605}, {"name": "Hawarden Bridge", "latitude": 53.2180884, "longitude": -3.032727145}, {"name": "Heath High Level", "latitude": 51.51656604, "longitude": -3.181713068}, {"name": "Heath Low Level", "latitude": 51.51566416, "longitude": -3.181977972}, {"name": "Helsby", "latitude": 53.27517482, "longitude": -2.770757816}, {"name": "Hengoed", "latitude": 51.64740601, "longitude": -3.224137826}, {"name": "Hereford", "latitude": 52.06116993, "longitude": -2.708217764}, {"name": "Heswall", "latitude": 53.32973476, "longitude": -3.07371296}, {"name": "Holyhead", "latitude": 53.30770479, "longitude": -4.631012675}, {"name": "Hope (Flintshire)", "latitude": 53.117378, "longitude": -3.03688641}, {"name": "Hopton Heath", "latitude": 52.3913806, "longitude": -2.91192311}, {"name": "Johnston (Pembs)", "latitude": 51.75675094, "longitude": -4.996358684}, {"name": "Kidwelly", "latitude": 51.73434386, "longitude": -4.317011245}, {"name": "Kilgetty", "latitude": 51.73210916, "longitude": -4.715192738}, {"name": "Knighton", "latitude": 52.34508013, "longitude": -3.042211012}, {"name": "Knucklas", "latitude": 52.35986953, "longitude": -3.096894202}, {"name": "Lamphey", "latitude": 51.66719665, "longitude": -4.87329867}, {"name": "Leominster", "latitude": 52.22514507, "longitude": -2.730485737}, {"name": "Lisvane & Thornhill", "latitude": 51.54457308, "longitude": -3.185611182}, {"name": "Llanaber", "latitude": 52.74152431, "longitude": -4.07718901}, {"name": "Llanbedr", "latitude": 52.8208656, "longitude": -4.110210769}, {"name": "Llanbister Road", "latitude": 52.33643285, "longitude": -3.213426306}, {"name": "Llanbradach", "latitude": 51.60325188, "longitude": -3.233057973}, {"name": "Llandaf", "latitude": 51.5085276, "longitude": -3.228913858}, {"name": "Llandanwg", "latitude": 52.83617691, "longitude": -4.123870362}, {"name": "Llandecwyn", "latitude": 52.92070224, "longitude": -4.057045956}, {"name": "Llandeilo", "latitude": 51.8853498, "longitude": -3.986919994}, {"name": "Llandovery", "latitude": 51.99532071, "longitude": -3.802853279}, {"name": "Llandrindod", "latitude": 52.2423651, "longitude": -3.379148724}, {"name": "Llandudno", "latitude": 53.32093562, "longitude": -3.827018135}, {"name": "Llandudno Junction", "latitude": 53.2839619, "longitude": -3.809118503}, {"name": "Llandybie", "latitude": 51.82103914, "longitude": -4.003678245}, {"name": "Llanelli", "latitude": 51.67386671, "longitude": -4.161325167}, {"name": "Llanfairfechan", "latitude": 53.25730522, "longitude": -3.98320943}, {"name": "Llanfairpwll", "latitude": 53.22096236, "longitude": -4.209228885}, {"name": "Llangadog", "latitude": 51.9402199, "longitude": -3.893174289}, {"name": "Llangammarch", "latitude": 52.11430955, "longitude": -3.554833328}, {"name": "Llangennech", "latitude": 51.69113653, "longitude": -4.078948655}, {"name": "Llangynllo", "latitude": 52.34963317, "longitude": -3.161373191}, {"name": "Llanharan", "latitude": 51.53758926, "longitude": -3.440795127}, {"name": "Llanhilleth", "latitude": 51.70029929, "longitude": -3.135209173}, {"name": "Llanishen", "latitude": 51.53274008, "longitude": -3.18198768}, {"name": "Llanrwst", "latitude": 53.14419979, "longitude": -3.80305891}, {"name": "Llansamlet", "latitude": 51.66150151, "longitude": -3.88471363}, {"name": "Llantwit Major", "latitude": 51.40974773, "longitude": -3.481635835}, {"name": "Llanwrda", "latitude": 51.96259418, "longitude": -3.871700406}, {"name": "Llanwrtyd", "latitude": 52.10472191, "longitude": -3.632182357}, {"name": "Llwyngwril", "latitude": 52.66680067, "longitude": -4.08769294}, {"name": "Llwynypia", "latitude": 51.63399985, "longitude": -3.453529864}, {"name": "Ludlow", "latitude": 52.37088713, "longitude": -2.715261521}, {"name": "Lydney", "latitude": 51.7146265, "longitude": -2.531163478}, {"name": "Machynlleth", "latitude": 52.5951531, "longitude": -3.854549885}, {"name": "Maesteg", "latitude": 51.60993535, "longitude": -3.654667781}, {"name": "Maesteg (Ewenny Road)", "latitude": 51.60533889, "longitude": -3.64901298}, {"name": "Manorbier", "latitude": 51.66016796, "longitude": -4.791870151}, {"name": "Merthyr Tydfil", "latitude": 51.74458569, "longitude": -3.377291952}, {"name": "Merthyr Vale", "latitude": 51.68664396, "longitude": -3.336588445}, {"name": "Milford Haven", "latitude": 51.71497622, "longitude": -5.041000361}, {"name": "Minffordd", "latitude": 52.92614937, "longitude": -4.084977496}, {"name": "Morfa Mawddach", "latitude": 52.70714813, "longitude": -4.032181673}, {"name": "Mountain Ash", "latitude": 51.68132902, "longitude": -3.376355225}, {"name": "Nantwich", "latitude": 53.06322887, "longitude": -2.519249351}, {"name": "Narberth", "latitude": 51.79937326, "longitude": -4.727212166}, {"name": "Neath", "latitude": 51.66235974, "longitude": -3.807245183}, {"name": "Neston", "latitude": 53.29242791, "longitude": -3.063775319}, {"name": "Newbridge", "latitude": 51.66581285, "longitude": -3.142907128}, {"name": "Newport (South Wales)", "latitude": 51.58974436, "longitude": -2.998648615}, {"name": "Newtown (Powys)", "latitude": 52.51232684, "longitude": -3.311399078}, {"name": "Ninian Park", "latitude": 51.47644072, "longitude": -3.201411567}, {"name": "North Llanrwst", "latitude": 53.14384493, "longitude": -3.802744992}, {"name": "Pantyffynnon", "latitude": 51.77888001, "longitude": -3.997460445}, {"name": "Pembrey & Burry Port", "latitude": 51.68352802, "longitude": -4.247865203}, {"name": "Pembroke", "latitude": 51.67294658, "longitude": -4.906065725}, {"name": "Pembroke Dock", "latitude": 51.69391548, "longitude": -4.93807661}, {"name": "Penally", "latitude": 51.65892008, "longitude": -4.722092618}, {"name": "Penarth", "latitude": 51.43588909, "longitude": -3.174465022}, {"name": "Pencoed", "latitude": 51.52461118, "longitude": -3.50049761}, {"name": "Pengam", "latitude": 51.67045291, "longitude": -3.230109732}, {"name": "Penhelig", "latitude": 52.54570208, "longitude": -4.03503834}, {"name": "Penmaenmawr", "latitude": 53.27048358, "longitude": -3.923515874}, {"name": "Penrhiwceiber", "latitude": 51.66992031, "longitude": -3.359957291}, {"name": "Penrhyndeudraeth", "latitude": 52.92884346, "longitude": -4.064573948}, {"name": "Pensarn (Gwynedd)", "latitude": 52.83072115, "longitude": -4.112173075}, {"name": "Pentre-Bach", "latitude": 51.72501373, "longitude": -3.362333939}, {"name": "Pen-y-Bont (Mid Wales)", "latitude": 52.27394924, "longitude": -3.321940024}, {"name": "Penychain", "latitude": 52.902882, "longitude": -4.33872}, {"name": "Penyffordd", "latitude": 53.14311037, "longitude": -3.054849214}, {"name": "Pontarddulais", "latitude": 51.71762164, "longitude": -4.045576015}, {"name": "Pontlottyn", "latitude": 51.74663206, "longitude": -3.278966771}, {"name": "Pontyclun", "latitude": 51.5237707, "longitude": -3.39293339}, {"name": "Pont-y-Pant", "latitude": 53.06515277, "longitude": -3.862740369}, {"name": "Pontypool & New Inn", "latitude": 51.69796197, "longitude": -3.014254502}, {"name": "Pontypridd", "latitude": 51.59936625, "longitude": -3.341388164}, {"name": "Port Talbot Parkway", "latitude": 51.59171473, "longitude": -3.781340109}, {"name": "Porth", "latitude": 51.61253349, "longitude": -3.407203552}, {"name": "Porthmadog", "latitude": 52.93093493, "longitude": -4.134459787}, {"name": "Prees", "latitude": 52.89965046, "longitude": -2.689744248}, {"name": "Prestatyn", "latitude": 53.33651635, "longitude": -3.407136515}, {"name": "Pwllheli", "latitude": 52.88785158, "longitude": -4.41671931}, {"name": "Pye Corner", "latitude": 51.579513, "longitude": -3.038295}, {"name": "Pyle", "latitude": 51.525739, "longitude": -3.698076385}, {"name": "Quakers Yard", "latitude": 51.6607231, "longitude": -3.322813042}, {"name": "Radyr", "latitude": 51.51650886, "longitude": -3.248009062}, {"name": "Rhiwbina", "latitude": 51.52118226, "longitude": -3.213975661}, {"name": "Rhoose Cardiff International Airport", "latitude": 51.38706545, "longitude": -3.34939894}, {"name": "Rhosneigr", "latitude": 53.23485594, "longitude": -4.506663917}, {"name": "Rhyl", "latitude": 53.31844074, "longitude": -3.489112507}, {"name": "Rhymney", "latitude": 51.75883789, "longitude": -3.289309476}, {"name": "Risca & Pontymister", "latitude": 51.60584265, "longitude": -3.092230162}, {"name": "Rogerstone", "latitude": 51.59561144, "longitude": -3.066632694}, {"name": "Roman Bridge", "latitude": 53.044436, "longitude": -3.921654634}, {"name": "Ruabon", "latitude": 52.96018774, "longitude": -3.04250099}, {"name": "Runcorn East", "latitude": 53.3269412, "longitude": -2.665085335}, {"name": "Sarn", "latitude": 51.53872014, "longitude": -3.589932796}, {"name": "Saundersfoot", "latitude": 51.72209314, "longitude": -4.716619622}, {"name": "Severn Tunnel Junction", "latitude": 51.58467107, "longitude": -2.777903615}, {"name": "Shotton", "latitude": 53.2125552, "longitude": -3.038434376}, {"name": "Shrewsbury", "latitude": 52.71141159, "longitude": -2.74894276}, {"name": "Skewen", "latitude": 51.66138872, "longitude": -3.846536024}, {"name": "Sugar Loaf", "latitude": 52.08228042, "longitude": -3.686969492}, {"name": "Swansea", "latitude": 51.62514381, "longitude": -3.941576226}, {"name": "Taffs Well", "latitude": 51.54079864, "longitude": -3.262949451}, {"name": "Talsarnau", "latitude": 52.90432506, "longitude": -4.068166336}, {"name": "Talybont", "latitude": 52.77264337, "longitude": -4.09660964}, {"name": "Tal-y-Cafn", "latitude": 53.22837926, "longitude": -3.818280351}, {"name": "Tenby", "latitude": 51.67294584, "longitude": -4.706733014}, {"name": "Tir-Phil", "latitude": 51.7209057, "longitude": -3.246390272}, {"name": "Ton Pentre", "latitude": 51.64779844, "longitude": -3.486204606}, {"name": "Tondu", "latitude": 51.54736625, "longitude": -3.595570636}, {"name": "Tonfanau", "latitude": 52.61355963, "longitude": -4.123713236}, {"name": "Tonypandy", "latitude": 51.61975969, "longitude": -3.448885591}, {"name": "Trefforest", "latitude": 51.59145801, "longitude": -3.325130833}, {"name": "Trefforest Estate", "latitude": 51.5682872, "longitude": -3.290260312}, {"name": "Trehafod", "latitude": 51.61014718, "longitude": -3.380989064}, {"name": "Treherbert", "latitude": 51.67224166, "longitude": -3.536321025}, {"name": "Treorchy", "latitude": 51.65753073, "longitude": -3.505751584}, {"name": "Troed-y-rhiw", "latitude": 51.71242473, "longitude": -3.346756999}, {"name": "Ty Croes", "latitude": 53.22257541, "longitude": -4.474753946}, {"name": "Ty Glas", "latitude": 51.5215412, "longitude": -3.19654418}, {"name": "Tygwyn", "latitude": 52.89380186, "longitude": -4.078666757}, {"name": "Tywyn", "latitude": 52.58559297, "longitude": -4.09357376}, {"name": "Upton (Merseyside)", "latitude": 53.38617781, "longitude": -3.084755805}, {"name": "Valley", "latitude": 53.28130417, "longitude": -4.563392247}, {"name": "Waun-Gron Park", "latitude": 51.48819741, "longitude": -3.229663483}, {"name": "Welshpool", "latitude": 52.65751111, "longitude": -3.139872828}, {"name": "Wem", "latitude": 52.85632741, "longitude": -2.718760914}, {"name": "Whitchurch (Cardiff)", "latitude": 51.52064748, "longitude": -3.22217731}, {"name": "Whitchurch (Shropshire)", "latitude": 52.96807676, "longitude": -2.67147586}, {"name": "Whitland", "latitude": 51.81803502, "longitude": -4.614424451}, {"name": "Wildmill", "latitude": 51.52087413, "longitude": -3.579653502}, {"name": "Wrenbury", "latitude": 53.0197184, "longitude": -2.59624734}, {"name": "Wrexham Central", "latitude": 53.04620654, "longitude": -2.999062482}, {"name": "Wrexham General", "latitude": 53.05025036, "longitude": -3.002453051}, {"name": "Ynyswen", "latitude": 51.66496961, "longitude": -3.521614997}, {"name": "Yorton", "latitude": 52.80896814, "longitude": -2.736464904}, {"name": "Ystrad Mynach", "latitude": 51.64093139, "longitude": -3.241305784}, {"name": "Ystrad Rhondda", "latitude": 51.64363752, "longitude": -3.466701338}, {"name": "Barking", "latitude": 51.5400412345, "longitude": 0.0807933827}, {"name": "Basildon", "latitude": 51.5681114558, "longitude": 0.4567956956}, {"name": "Benfleet", "latitude": 51.5439490855, "longitude": 0.561723002}, {"name": "Chafford Hundred Lakeside", "latitude": 51.485645362, "longitude": 0.2872366517}, {"name": "Chalkwell", "latitude": 51.538722717, "longitude": 0.6706052576}, {"name": "Dagenham Dock", "latitude": 51.5262934247, "longitude": 0.1450431938}, {"name": "East Tilbury", "latitude": 51.4848340787, "longitude": 0.4129328582}, {"name": "Grays", "latitude": 51.4762505757, "longitude": 0.3218346029}, {"name": "Laindon", "latitude": 51.5677669135, "longitude": 0.4236436899}, {"name": "Leigh-on-Sea", "latitude": 51.5413668098, "longitude": 0.6404283175}, {"name": "Limehouse", "latitude": 51.512794432, "longitude": -0.0393527349}, {"name": "London Fenchurch Street", "latitude": 51.51157341, "longitude": -0.078591579}, {"name": "Ockendon", "latitude": 51.5219961849, "longitude": 0.2904709275}, {"name": "Pitsea", "latitude": 51.5603638481, "longitude": 0.5063012148}, {"name": "Purfleet", "latitude": 51.4810161506, "longitude": 0.2367813953}, {"name": "Rainham (Essex)", "latitude": 51.5173546284, "longitude": 0.1907490215}, {"name": "Shoeburyness", "latitude": 51.5309758701, "longitude": 0.7953607931}, {"name": "Southend Central", "latitude": 51.5370680411, "longitude": 0.7117404187}, {"name": "Southend East", "latitude": 51.5389761049, "longitude": 0.7318291094}, {"name": "Stanford-le-Hope", "latitude": 51.5143671372, "longitude": 0.4230412837}, {"name": "Thorpe Bay", "latitude": 51.5375737603, "longitude": 0.7617431863}, {"name": "Tilbury Town", "latitude": 51.4623607916, "longitude": 0.3540417321}, {"name": "Upminster", "latitude": 51.5593632504, "longitude": 0.2519216008}, {"name": "West Horndon", "latitude": 51.567950568, "longitude": 0.3406471967}, {"name": "Westcliff", "latitude": 51.5373370324, "longitude": 0.691479135}, {"name": "Aylesbury", "latitude": 51.81389614, "longitude": -0.815094966}, {"name": "Aylesbury Vale Parkway", "latitude": 51.830795, "longitude": -0.860787}, {"name": "Banbury", "latitude": 52.06031282, "longitude": -1.328130455}, {"name": "Beaconsfield", "latitude": 51.61129066, "longitude": -0.643817675}, {"name": "Bicester North", "latitude": 51.90349153, "longitude": -1.150376878}, {"name": "Bicester Village", "latitude": 51.89349443, "longitude": -1.148065862}, {"name": "Birmingham Moor Street", "latitude": 52.479088, "longitude": -1.89246908}, {"name": "Denham", "latitude": 51.5788354, "longitude": -0.497428347}, {"name": "Denham Golf Club", "latitude": 51.58059592, "longitude": -0.517778734}, {"name": "Dorridge", "latitude": 52.37208286, "longitude": -1.752908156}, {"name": "Gerrards Cross", "latitude": 51.58902157, "longitude": -0.555268471}, {"name": "Great Missenden", "latitude": 51.70352072, "longitude": -0.709137756}, {"name": "Haddenham & Thame Parkway", "latitude": 51.77085986, "longitude": -0.942139967}, {"name": "Hatton", "latitude": 52.29528991, "longitude": -1.672981218}, {"name": "High Wycombe", "latitude": 51.62958615, "longitude": -0.74540803}, {"name": "Islip", "latitude": 51.82576003, "longitude": -1.238178071}, {"name": "Kings Sutton", "latitude": 52.02135474, "longitude": -1.280927148}, {"name": "Lapworth", "latitude": 52.34127509, "longitude": -1.725484472}, {"name": "Leamington Spa", "latitude": 52.28450186, "longitude": -1.536212243}, {"name": "Little Kimble", "latitude": 51.75223562, "longitude": -0.808451583}, {"name": "London Marylebone", "latitude": 51.5225401, "longitude": -0.163627749}, {"name": "Monks Risborough", "latitude": 51.73576572, "longitude": -0.829333579}, {"name": "Northolt Park", "latitude": 51.55763535, "longitude": -0.359421311}, {"name": "Oxford Parkway", "latitude": 51.8042, "longitude": -1.2745}, {"name": "Princes Risborough", "latitude": 51.71786322, "longitude": -0.843881476}, {"name": "Saunderton", "latitude": 51.67590446, "longitude": -0.825468633}, {"name": "Seer Green & Jordans", "latitude": 51.60966864, "longitude": -0.607428365}, {"name": "Solihull", "latitude": 52.41440643, "longitude": -1.788399215}, {"name": "Stoke Mandeville", "latitude": 51.78780029, "longitude": -0.784084548}, {"name": "Sudbury & Harrow Road", "latitude": 51.5545018, "longitude": -0.315970143}, {"name": "Sudbury Hill Harrow", "latitude": 51.55838698, "longitude": -0.336167829}, {"name": "Warwick", "latitude": 52.28655133, "longitude": -1.581858014}, {"name": "Warwick Parkway", "latitude": 52.28611497, "longitude": -1.612062229}, {"name": "Wembley Stadium", "latitude": 51.55469663, "longitude": -0.285958395}, {"name": "Wendover", "latitude": 51.76176123, "longitude": -0.747369763}, {"name": "Alfreton", "latitude": 53.10045706, "longitude": -1.369688632}, {"name": "Alsager", "latitude": 53.09275298, "longitude": -2.298612158}, {"name": "Ambergate", "latitude": 53.06054078, "longitude": -1.48069344}, {"name": "Ancaster", "latitude": 52.98793249, "longitude": -0.535615122}, {"name": "Aslockton", "latitude": 52.95139426, "longitude": -0.898543361}, {"name": "Attenborough", "latitude": 52.9063664, "longitude": -1.231269105}, {"name": "Barrow Haven", "latitude": 53.6971445, "longitude": -0.391442806}, {"name": "Barrow-upon-Soar", "latitude": 52.75028353, "longitude": -1.149568919}, {"name": "Barton-on-Humber", "latitude": 53.68883974, "longitude": -0.443251195}, {"name": "Beeston", "latitude": 52.92077475, "longitude": -1.207661803}, {"name": "Belper", "latitude": 53.02459133, "longitude": -1.482616227}, {"name": "Bingham", "latitude": 52.95457509, "longitude": -0.952051798}, {"name": "Bleasby", "latitude": 53.04169182, "longitude": -0.942482306}, {"name": "Blythe Bridge", "latitude": 52.96816538, "longitude": -2.066959695}, {"name": "Boston", "latitude": 52.97811818, "longitude": -0.031002264}, {"name": "Bottesford", "latitude": 52.94500577, "longitude": -0.796014823}, {"name": "Bulwell", "latitude": 52.99971765, "longitude": -1.196233543}, {"name": "Burton Joyce", "latitude": 52.98409116, "longitude": -1.040713371}, {"name": "Burton-on-Trent", "latitude": 52.80583306, "longitude": -1.642462026}, {"name": "Carlton", "latitude": 52.96497797, "longitude": -1.079253189}, {"name": "Chesterfield", "latitude": 53.23824054, "longitude": -1.420109085}, {"name": "Collingham", "latitude": 53.14411144, "longitude": -0.750383181}, {"name": "Corby", "latitude": 52.488051, "longitude": -0.689243}, {"name": "Creswell", "latitude": 53.26403988, "longitude": -1.215873919}, {"name": "Cromford", "latitude": 53.11294781, "longitude": -1.548786122}, {"name": "Derby", "latitude": 52.91618036, "longitude": -1.463073262}, {"name": "Duffield", "latitude": 52.98774917, "longitude": -1.486035917}, {"name": "East Midlands Parkway", "latitude": 52.864306, "longitude": -1.264687}, {"name": "Elton & Orston", "latitude": 52.95188523, "longitude": -0.855364249}, {"name": "Fiskerton", "latitude": 53.06029715, "longitude": -0.912182054}, {"name": "Gainsborough Lea Road", "latitude": 53.38611247, "longitude": -0.768583076}, {"name": "Goxhill", "latitude": 53.67671563, "longitude": -0.337125453}, {"name": "Great Coates", "latitude": 53.57577255, "longitude": -0.130229747}, {"name": "Grimsby Docks", "latitude": 53.57433986, "longitude": -0.075615006}, {"name": "Habrough", "latitude": 53.60553503, "longitude": -0.267975846}, {"name": "Havenhouse", "latitude": 53.11449084, "longitude": 0.273177619}, {"name": "Healing", "latitude": 53.5818177, "longitude": -0.160630049}, {"name": "Heckington", "latitude": 52.97733733, "longitude": -0.293936548}, {"name": "Hinckley (Leics)", "latitude": 52.53501671, "longitude": -1.371919253}, {"name": "Hubberts Bridge", "latitude": 52.97564369, "longitude": -0.110071823}, {"name": "Hucknall", "latitude": 53.03830732, "longitude": -1.195814321}, {"name": "Hykeham", "latitude": 53.19536728, "longitude": -0.598164171}, {"name": "Ilkeston", "latitude": 52.9794, "longitude": -1.2949}, {"name": "Kettering", "latitude": 52.39356783, "longitude": -0.731555547}, {"name": "Kidsgrove", "latitude": 53.08658326, "longitude": -2.244818788}, {"name": "Kirkby-in-Ashfield", "latitude": 53.10012396, "longitude": -1.253060759}, {"name": "Langley Mill", "latitude": 53.01808321, "longitude": -1.331236345}, {"name": "Langwith-Whaley Thorns", "latitude": 53.23253667, "longitude": -1.209707864}, {"name": "Leicester", "latitude": 52.63144566, "longitude": -1.125278584}, {"name": "Lincoln", "latitude": 53.22610544, "longitude": -0.539919855}, {"name": "Long Eaton", "latitude": 52.88514513, "longitude": -1.288104264}, {"name": "Longport", "latitude": 53.04169194, "longitude": -2.216225493}, {"name": "Longton", "latitude": 52.989671, "longitude": -2.137010067}, {"name": "Loughborough", "latitude": 52.77897038, "longitude": -1.195932923}, {"name": "Lowdham", "latitude": 53.00692902, "longitude": -0.997582237}, {"name": "Mansfield", "latitude": 53.14255896, "longitude": -1.197157497}, {"name": "Mansfield Woodhouse", "latitude": 53.16145454, "longitude": -1.199796358}, {"name": "Market Harborough", "latitude": 52.48040756, "longitude": -0.908871723}, {"name": "Market Rasen", "latitude": 53.38447725, "longitude": -0.337094278}, {"name": "Matlock", "latitude": 53.13815608, "longitude": -1.558986118}, {"name": "Matlock Bath", "latitude": 53.12197042, "longitude": -1.557657491}, {"name": "Melton Mowbray", "latitude": 52.7606833, "longitude": -0.885577764}, {"name": "Metheringham", "latitude": 53.13890433, "longitude": -0.391447021}, {"name": "Narborough", "latitude": 52.57131212, "longitude": -1.203351787}, {"name": "Netherfield", "latitude": 52.96147483, "longitude": -1.07962538}, {"name": "New Clee", "latitude": 53.57446029, "longitude": -0.05914558}, {"name": "New Holland", "latitude": 53.70193475, "longitude": -0.360203766}, {"name": "Newark Castle", "latitude": 53.08002714, "longitude": -0.81315172}, {"name": "Newstead", "latitude": 53.07171822, "longitude": -1.22235722}, {"name": "Nottingham", "latitude": 52.94717947, "longitude": -1.14688808}, {"name": "Oakham", "latitude": 52.67223558, "longitude": -0.73416278}, {"name": "Peartree", "latitude": 52.89806425, "longitude": -1.472677646}, {"name": "Radcliffe (Nottinghamshire)", "latitude": 52.94890755, "longitude": -1.036580335}, {"name": "Rauceby", "latitude": 52.98522476, "longitude": -0.456602942}, {"name": "Rolleston", "latitude": 53.06574736, "longitude": -0.898762153}, {"name": "Ruskington", "latitude": 53.04148456, "longitude": -0.380756379}, {"name": "Saxilby", "latitude": 53.26722423, "longitude": -0.664040791}, {"name": "Sheffield", "latitude": 53.37823538, "longitude": -1.462104529}, {"name": "Shirebrook", "latitude": 53.20426177, "longitude": -1.202442721}, {"name": "Sileby", "latitude": 52.73102158, "longitude": -1.10966224}, {"name": "Skegness", "latitude": 53.1430765, "longitude": 0.333903847}, {"name": "Sleaford", "latitude": 52.99549349, "longitude": -0.41034233}, {"name": "South Wigston", "latitude": 52.58224354, "longitude": -1.134080764}, {"name": "Spalding", "latitude": 52.78882937, "longitude": -0.156873182}, {"name": "Spondon", "latitude": 52.91188874, "longitude": -1.411093591}, {"name": "Stallingborough", "latitude": 53.58711418, "longitude": -0.183667548}, {"name": "Stamford (Lincs)", "latitude": 52.64740704, "longitude": -0.480499424}, {"name": "Sutton Parkway", "latitude": 53.11420865, "longitude": -1.245645184}, {"name": "Swinderby", "latitude": 53.16958189, "longitude": -0.70268215}, {"name": "Swineshead", "latitude": 52.96983174, "longitude": -0.187156156}, {"name": "Syston", "latitude": 52.6946713, "longitude": -1.082139486}, {"name": "Thornton Abbey", "latitude": 53.65397075, "longitude": -0.323493815}, {"name": "Thorpe Culvert", "latitude": 53.12279894, "longitude": 0.199481891}, {"name": "Thurgarton", "latitude": 53.02922431, "longitude": -0.962023239}, {"name": "Tutbury & Hatton", "latitude": 52.86437892, "longitude": -1.682087757}, {"name": "Uttoxeter", "latitude": 52.89708125, "longitude": -1.857261595}, {"name": "Wainfleet", "latitude": 53.10514887, "longitude": 0.234736319}, {"name": "Wellingborough", "latitude": 52.30379284, "longitude": -0.676643216}, {"name": "Whatstandwell", "latitude": 53.08311502, "longitude": -1.504309244}, {"name": "Whitwell (Derbyshire)", "latitude": 53.28038058, "longitude": -1.199376401}, {"name": "Willington", "latitude": 52.85366357, "longitude": -1.563360192}, {"name": "Ashford International (Eurostar)", "latitude": 51.1409, "longitude": 0.875}, {"name": "London St Pancras (Intl)", "latitude": 51.53242, "longitude": -0.12603}, {"name": "Horwich Parkway", "latitude": 53.57812052, "longitude": -2.539674261}, {"name": "Alexandra Palace", "latitude": 51.59829, "longitude": -0.12014}, {"name": "Arlesey", "latitude": 52.02604, "longitude": -0.26632}, {"name": "Ashwell & Morden", "latitude": 52.03078, "longitude": -0.10978}, {"name": "Baldock", "latitude": 51.99288, "longitude": -0.18756}, {"name": "Bayford", "latitude": 51.75772, "longitude": -0.0956}, {"name": "Biggleswade", "latitude": 52.08469, "longitude": -0.26118}, {"name": "Bowes Park", "latitude": 51.60728, "longitude": -0.11977}, {"name": "Brookmans Park", "latitude": 51.72106, "longitude": -0.20455}, {"name": "Crews Hill", "latitude": 51.68449, "longitude": -0.10688}, {"name": "Cuffley", "latitude": 51.70872, "longitude": -0.10978}, {"name": "Downham Market", "latitude": 52.60413, "longitude": 0.365691}, {"name": "Drayton Park", "latitude": 51.55309, "longitude": -0.10571}, {"name": "Enfield Chase", "latitude": 51.65276, "longitude": -0.09071}, {"name": "Essex Road", "latitude": 51.54071, "longitude": -0.09627}, {"name": "Finsbury Park", "latitude": 51.56478, "longitude": -0.10565}, {"name": "Foxton", "latitude": 52.11913, "longitude": 0.056536}, {"name": "Gordon Hill", "latitude": 51.66352, "longitude": -0.09431}, {"name": "Grange Park", "latitude": 51.64262, "longitude": -0.09735}, {"name": "Hadley Wood", "latitude": 51.66841, "longitude": -0.17653}, {"name": "Harringay", "latitude": 51.57737, "longitude": -0.10513}, {"name": "Hatfield (Herts)", "latitude": 51.76388, "longitude": -0.21559}, {"name": "Hertford North", "latitude": 51.79886, "longitude": -0.09178}, {"name": "Hitchin", "latitude": 51.95329, "longitude": -0.26348}, {"name": "Hornsey", "latitude": 51.58647, "longitude": -0.11197}, {"name": "Huntingdon", "latitude": 52.32866, "longitude": -0.19206}, {"name": "Kings Lynn", "latitude": 52.75381, "longitude": 0.403525}, {"name": "Knebworth", "latitude": 51.86686, "longitude": -0.18728}, {"name": "Letchworth Garden City", "latitude": 51.97997, "longitude": -0.22926}, {"name": "Littleport", "latitude": 52.4624, "longitude": 0.316567}, {"name": "Meldreth", "latitude": 52.09073, "longitude": 0.008953}, {"name": "New Barnet", "latitude": 51.64857, "longitude": -0.17299}, {"name": "New Southgate", "latitude": 51.61412, "longitude": -0.14303}, {"name": "Oakleigh Park", "latitude": 51.63769, "longitude": -0.16621}, {"name": "Palmers Green", "latitude": 51.61882, "longitude": -0.11034}, {"name": "Potters Bar", "latitude": 51.69729, "longitude": -0.19236}, {"name": "Royston", "latitude": 52.05309, "longitude": -0.02691}, {"name": "Sandy", "latitude": 52.12475, "longitude": -0.28119}, {"name": "Shepreth", "latitude": 52.11417, "longitude": 0.031332}, {"name": "St Neots", "latitude": 52.23158, "longitude": -0.24741}, {"name": "Stevenage", "latitude": 51.90169, "longitude": -0.20711}, {"name": "Waterbeach", "latitude": 52.26245, "longitude": 0.197386}, {"name": "Watlington", "latitude": 52.67319, "longitude": 0.383327}, {"name": "Watton-at-Stone", "latitude": 51.85636, "longitude": -0.11972}, {"name": "Welham Green", "latitude": 51.73635, "longitude": -0.21069}, {"name": "Welwyn Garden City", "latitude": 51.80105, "longitude": -0.20407}, {"name": "Welwyn North", "latitude": 51.8235, "longitude": -0.19209}, {"name": "Winchmore Hill", "latitude": 51.63395, "longitude": -0.10089}, {"name": "Berwick-upon-Tweed", "latitude": 55.77482692, "longitude": -2.011127048}, {"name": "Darlington", "latitude": 54.52045136, "longitude": -1.547328479}, {"name": "Doncaster", "latitude": 53.5214971, "longitude": -1.140234479}, {"name": "Durham", "latitude": 54.77939227, "longitude": -1.581756017}, {"name": "Grantham", "latitude": 52.90649078, "longitude": -0.642452874}, {"name": "Newark Northgate", "latitude": 53.08191008, "longitude": -0.800110846}, {"name": "Newcastle", "latitude": 54.96822056, "longitude": -1.617285496}, {"name": "Peterborough", "latitude": 52.57499236, "longitude": -0.249830061}, {"name": "Retford", "latitude": 53.31517556, "longitude": -0.947878147}, {"name": "Wakefield Westgate", "latitude": 53.68174679, "longitude": -1.505407662}, {"name": "York", "latitude": 53.95797924, "longitude": -1.093176915}, {"name": "Aldermaston", "latitude": 51.40201112, "longitude": -1.138770296}, {"name": "Appleford", "latitude": 51.63964272, "longitude": -1.242139074}, {"name": "Ascott-under-Wychwood", "latitude": 51.86734048, "longitude": -1.564058135}, {"name": "Ashchurch for Tewkesbury", "latitude": 51.99916912, "longitude": -2.109057444}, {"name": "Avoncliff", "latitude": 51.33964614, "longitude": -2.281339394}, {"name": "Avonmouth", "latitude": 51.50012646, "longitude": -2.698421372}, {"name": "Barnstaple", "latitude": 51.07396111, "longitude": -4.063153416}, {"name": "Bath Spa", "latitude": 51.37768276, "longitude": -2.357034178}, {"name": "Bedminster", "latitude": 51.44008674, "longitude": -2.594156901}, {"name": "Bedwyn", "latitude": 51.37963498, "longitude": -1.598795279}, {"name": "Bere Alston", "latitude": 50.4855868, "longitude": -4.200398271}, {"name": "Bere Ferrers", "latitude": 50.45085678, "longitude": -4.181881299}, {"name": "Betchworth", "latitude": 51.24818664, "longitude": -0.266974147}, {"name": "Blackwater", "latitude": 51.33181014, "longitude": -0.777022615}, {"name": "Bodmin Parkway", "latitude": 50.44585588, "longitude": -4.662971107}, {"name": "Bourne End", "latitude": 51.57711651, "longitude": -0.710471017}, {"name": "Bradford-on-Avon", "latitude": 51.34490956, "longitude": -2.252339918}, {"name": "Bramley (Hampshire)", "latitude": 51.33007866, "longitude": -1.060987012}, {"name": "Bridgwater", "latitude": 51.12807318, "longitude": -2.99028809}, {"name": "Bristol Parkway", "latitude": 51.51383574, "longitude": -2.542659527}, {"name": "Bruton", "latitude": 51.11162818, "longitude": -2.447079134}, {"name": "Bugle", "latitude": 50.39994328, "longitude": -4.791841896}, {"name": "Calstock", "latitude": 50.49757193, "longitude": -4.208711079}, {"name": "Cam & Dursley", "latitude": 51.71761608, "longitude": -2.359096838}, {"name": "Camborne", "latitude": 50.21042369, "longitude": -5.297472083}, {"name": "Carbis Bay", "latitude": 50.19715063, "longitude": -5.464037988}, {"name": "Castle Bar Park", "latitude": 51.52297874, "longitude": -0.331404502}, {"name": "Castle Cary", "latitude": 51.09980387, "longitude": -2.522802166}, {"name": "Causeland", "latitude": 50.40568197, "longitude": -4.466485305}, {"name": "Chapelton (Devon)", "latitude": 51.01582131, "longitude": -4.02437053}, {"name": "Charlbury", "latitude": 51.8724362, "longitude": -1.489697044}, {"name": "Cheltenham Spa", "latitude": 51.897399, "longitude": -2.099625825}, {"name": "Chetnole", "latitude": 50.86648406, "longitude": -2.574046181}, {"name": "Chilworth", "latitude": 51.21521009, "longitude": -0.524818359}, {"name": "Chippenham", "latitude": 51.46248638, "longitude": -2.115402682}, {"name": "Cholsey", "latitude": 51.57020166, "longitude": -1.158018612}, {"name": "Clifton Down", "latitude": 51.46454417, "longitude": -2.611749153}, {"name": "Combe (Oxon)", "latitude": 51.83234296, "longitude": -1.392901935}, {"name": "Cookham", "latitude": 51.5574608, "longitude": -0.722076986}, {"name": "Coombe Junction Halt", "latitude": 50.44547073, "longitude": -4.48193626}, {"name": "Copplestone", "latitude": 50.81445919, "longitude": -3.751601158}, {"name": "Crediton", "latitude": 50.78342809, "longitude": -3.646879885}, {"name": "Crowthorne", "latitude": 51.36672944, "longitude": -0.819274953}, {"name": "Culham", "latitude": 51.65379512, "longitude": -1.236511134}, {"name": "Dawlish", "latitude": 50.58080594, "longitude": -3.464647817}, {"name": "Dawlish Warren", "latitude": 50.59905091, "longitude": -3.444018179}, {"name": "Devonport", "latitude": 50.3781945, "longitude": -4.171511893}, {"name": "Didcot Parkway", "latitude": 51.61095504, "longitude": -1.242891296}, {"name": "Digby & Sowton", "latitude": 50.71370499, "longitude": -3.473885692}, {"name": "Dilton Marsh", "latitude": 51.24799152, "longitude": -2.207421924}, {"name": "Dockyard (Devonport)", "latitude": 50.38224968, "longitude": -4.175917265}, {"name": "Dorchester West", "latitude": 50.71094047, "longitude": -2.442548773}, {"name": "Dorking (Deepdene)", "latitude": 51.23880129, "longitude": -0.324631668}, {"name": "Dorking West", "latitude": 51.23622304, "longitude": -0.339967488}, {"name": "Drayton Green", "latitude": 51.51602938, "longitude": -0.329640681}, {"name": "Eggesford", "latitude": 50.88773166, "longitude": -3.874777657}, {"name": "Evesham", "latitude": 52.09840414, "longitude": -1.947313868}, {"name": "Exeter Central", "latitude": 50.72652351, "longitude": -3.532947602}, {"name": "Exeter St David's", "latitude": 50.72915216, "longitude": -3.543660789}, {"name": "Exeter St Thomas", "latitude": 50.71655803, "longitude": -3.539818783}, {"name": "Exmouth", "latitude": 50.6216214, "longitude": -3.41499267}, {"name": "Exton", "latitude": 50.66829151, "longitude": -3.444117811}, {"name": "Falmouth Docks", "latitude": 50.15069317, "longitude": -5.056082925}, {"name": "Falmouth Town", "latitude": 50.14836368, "longitude": -5.065272382}, {"name": "Farnborough North", "latitude": 51.30204484, "longitude": -0.743026722}, {"name": "Filton Abbey Wood", "latitude": 51.50493962, "longitude": -2.562437257}, {"name": "Finstock", "latitude": 51.85279021, "longitude": -1.469345759}, {"name": "Freshford", "latitude": 51.34202505, "longitude": -2.301023075}, {"name": "Frome", "latitude": 51.22726268, "longitude": -2.310012271}, {"name": "Furze Platt", "latitude": 51.53301767, "longitude": -0.728471069}, {"name": "Gloucester", "latitude": 51.86541548, "longitude": -2.238656564}, {"name": "Gomshall", "latitude": 51.21947014, "longitude": -0.442056348}, {"name": "Goring & Streatley", "latitude": 51.52149065, "longitude": -1.13304466}, {"name": "Gunnislake", "latitude": 50.51606725, "longitude": -4.219449323}, {"name": "Hanborough", "latitude": 51.82516517, "longitude": -1.373525679}, {"name": "Hayle", "latitude": 50.18623531, "longitude": -5.419529634}, {"name": "Henley-on-Thames", "latitude": 51.53417793, "longitude": -0.900215287}, {"name": "Heyford", "latitude": 51.91919985, "longitude": -1.299267568}, {"name": "Highbridge & Burnham", "latitude": 51.21815016, "longitude": -2.972173138}, {"name": "Honeybourne", "latitude": 52.10142923, "longitude": -1.834981487}, {"name": "Hungerford", "latitude": 51.41490602, "longitude": -1.512293535}, {"name": "Ivybridge", "latitude": 50.39357854, "longitude": -3.904458214}, {"name": "Kemble", "latitude": 51.67627148, "longitude": -2.023096483}, {"name": "Keyham", "latitude": 50.38974606, "longitude": -4.179074345}, {"name": "Keynsham", "latitude": 51.41716993, "longitude": -2.494633256}, {"name": "Kingham", "latitude": 51.90225045, "longitude": -1.6287933}, {"name": "Kings Nympton", "latitude": 50.93597779, "longitude": -3.905610885}, {"name": "Kintbury", "latitude": 51.40251723, "longitude": -1.445993627}, {"name": "Lapford", "latitude": 50.85743381, "longitude": -3.811468159}, {"name": "Lawrence Hill", "latitude": 51.45821869, "longitude": -2.564165806}, {"name": "Lelant", "latitude": 50.18411125, "longitude": -5.436611903}, {"name": "Lelant Saltings", "latitude": 50.1792896, "longitude": -5.441449302}, {"name": "Liskeard", "latitude": 50.44684832, "longitude": -4.467498917}, {"name": "Looe", "latitude": 50.3592157, "longitude": -4.456201102}, {"name": "Lostwithiel", "latitude": 50.40749717, "longitude": -4.665464131}, {"name": "Luxulyan", "latitude": 50.39029491, "longitude": -4.74751507}, {"name": "Lympstone Commando", "latitude": 50.66222519, "longitude": -3.440861256}, {"name": "Lympstone Village", "latitude": 50.64867164, "longitude": -3.431393476}, {"name": "Maiden Newton", "latitude": 50.77999537, "longitude": -2.569440541}, {"name": "Maidenhead", "latitude": 51.51866595, "longitude": -0.722658698}, {"name": "Marlow", "latitude": 51.57099199, "longitude": -0.766429862}, {"name": "Melksham", "latitude": 51.37981906, "longitude": -2.144507047}, {"name": "Menheniot", "latitude": 50.42622082, "longitude": -4.40925881}, {"name": "Midgham", "latitude": 51.39596936, "longitude": -1.177708473}, {"name": "Montpelier", "latitude": 51.46889519, "longitude": -2.587332548}, {"name": "Morchard Road", "latitude": 50.83189161, "longitude": -3.776395869}, {"name": "Moreton-in-Marsh", "latitude": 51.99228415, "longitude": -1.700388972}, {"name": "Mortimer", "latitude": 51.37207211, "longitude": -1.03550347}, {"name": "Nailsea & Backwell", "latitude": 51.41940681, "longitude": -2.750646299}, {"name": "Newbury", "latitude": 51.39764427, "longitude": -1.322862459}, {"name": "Newbury Racecourse", "latitude": 51.39845548, "longitude": -1.307799999}, {"name": "Newcourt", "latitude": 50.7023, "longitude": -3.472551}, {"name": "Newquay", "latitude": 50.41508811, "longitude": -5.075708631}, {"name": "Newton Abbot", "latitude": 50.52956986, "longitude": -3.599193375}, {"name": "Newton St Cyres", "latitude": 50.77891926, "longitude": -3.589414088}, {"name": "North Camp", "latitude": 51.27579399, "longitude": -0.731198355}, {"name": "Okehampton", "latitude": 50.737521, "longitude": -3.995299}, {"name": "Oldfield Park", "latitude": 51.37920116, "longitude": -2.3802945}, {"name": "Oxford", "latitude": 51.75350075, "longitude": -1.270151173}, {"name": "Paignton", "latitude": 50.43470781, "longitude": -3.564338773}, {"name": "Pangbourne", "latitude": 51.4853982, "longitude": -1.090464668}, {"name": "Par", "latitude": 50.35531723, "longitude": -4.704719639}, {"name": "Parson Street", "latitude": 51.43353995, "longitude": -2.608313932}, {"name": "Patchway", "latitude": 51.52592522, "longitude": -2.562695774}, {"name": "Penmere", "latitude": 50.1497831, "longitude": -5.083003855}, {"name": "Penryn (Cornwall)", "latitude": 50.17026855, "longitude": -5.110935401}, {"name": "Penzance", "latitude": 50.12168229, "longitude": -5.532467153}, {"name": "Perranwell", "latitude": 50.21648441, "longitude": -5.111839596}, {"name": "Pershore", "latitude": 52.13029348, "longitude": -2.07154008}, {"name": "Pewsey", "latitude": 51.34218734, "longitude": -1.770675036}, {"name": "Pilning", "latitude": 51.55662016, "longitude": -2.627119757}, {"name": "Plymouth", "latitude": 50.37781736, "longitude": -4.143363131}, {"name": "Polsloe Bridge", "latitude": 50.73106987, "longitude": -3.501496022}, {"name": "Portsmouth Arms", "latitude": 50.95699912, "longitude": -3.950613811}, {"name": "Portway Park & Ride", "latitude": 51.4901288, "longitude": -2.6888666}, {"name": "Quintrell Downs", "latitude": 50.40396942, "longitude": -5.029806255}, {"name": "Radley", "latitude": 51.68620873, "longitude": -1.240479351}, {"name": "Reading Green Park", "latitude": 51.4266639, "longitude": -0.9996331}, {"name": "Reading West", "latitude": 51.45545321, "longitude": -0.990294679}, {"name": "Redland", "latitude": 51.46838591, "longitude": -2.599131362}, {"name": "Redruth", "latitude": 50.2332413, "longitude": -5.225974546}, {"name": "Roche", "latitude": 50.41826529, "longitude": -4.830229067}, {"name": "Saltash", "latitude": 50.40734763, "longitude": -4.20915696}, {"name": "Sampford Courtenay", "latitude": 50.778968, "longitude": -3.937485}, {"name": "Sandhurst (Berks)", "latitude": 51.34647568, "longitude": -0.803914472}, {"name": "Sandplace", "latitude": 50.38674429, "longitude": -4.464517438}, {"name": "Sea Mills", "latitude": 51.47953406, "longitude": -2.650110484}, {"name": "Severn Beach", "latitude": 51.55955383, "longitude": -2.66427711}, {"name": "Shalford (Surrey)", "latitude": 51.21431997, "longitude": -0.566799182}, {"name": "Shiplake", "latitude": 51.51121587, "longitude": -0.882524379}, {"name": "Shipton", "latitude": 51.86565386, "longitude": -1.5926996}, {"name": "Shirehampton", "latitude": 51.48458989, "longitude": -2.678266118}, {"name": "Slough", "latitude": 51.51187689, "longitude": -0.591504981}, {"name": "South Greenford", "latitude": 51.53321485, "longitude": -0.336653369}, {"name": "St Andrews Road", "latitude": 51.51279724, "longitude": -2.696698481}, {"name": "St Austell", "latitude": 50.33950737, "longitude": -4.789405571}, {"name": "St Budeaux Ferry Road", "latitude": 50.40138693, "longitude": -4.186644684}, {"name": "St Budeaux Victoria Road", "latitude": 50.4021693, "longitude": -4.188088002}, {"name": "St Columb Road", "latitude": 50.39905812, "longitude": -4.940828131}, {"name": "St Erth", "latitude": 50.1704777, "longitude": -5.444317521}, {"name": "St Germans", "latitude": 50.39426531, "longitude": -4.30845147}, {"name": "St Ives (Cornwall)", "latitude": 50.20864501, "longitude": -5.47678695}, {"name": "St James Park (Exeter)", "latitude": 50.73068086, "longitude": -3.523164103}, {"name": "St Keyne Wishing Well Halt", "latitude": 50.42305549, "longitude": -4.461615382}, {"name": "Stapleton Road", "latitude": 51.46750636, "longitude": -2.566223864}, {"name": "Starcross", "latitude": 50.62778455, "longitude": -3.447726133}, {"name": "Stonehouse", "latitude": 51.74588546, "longitude": -2.279510293}, {"name": "Stroud (Gloucs)", "latitude": 51.74457443, "longitude": -2.219392567}, {"name": "Swindon (Wilts)", "latitude": 51.56547293, "longitude": -1.785510103}, {"name": "Tackley", "latitude": 51.88132548, "longitude": -1.297226956}, {"name": "Taunton", "latitude": 51.02365625, "longitude": -3.102132918}, {"name": "Teignmouth", "latitude": 50.54804676, "longitude": -3.494686366}, {"name": "Thatcham", "latitude": 51.39383879, "longitude": -1.243189177}, {"name": "Theale", "latitude": 51.43344686, "longitude": -1.074967204}, {"name": "Thornford", "latitude": 50.91195034, "longitude": -2.57972607}, {"name": "Tilehurst", "latitude": 51.47150508, "longitude": -1.029822977}, {"name": "Tiverton Parkway", "latitude": 50.9175286, "longitude": -3.359957026}, {"name": "Topsham", "latitude": 50.68604362, "longitude": -3.463675278}, {"name": "Torquay", "latitude": 50.46116534, "longitude": -3.54366854}, {"name": "Torre", "latitude": 50.4731714, "longitude": -3.546441301}, {"name": "Totnes", "latitude": 50.43584686, "longitude": -3.688721847}, {"name": "Trowbridge", "latitude": 51.31982565, "longitude": -2.21434677}, {"name": "Truro", "latitude": 50.26382962, "longitude": -5.064866947}, {"name": "Twyford", "latitude": 51.47553018, "longitude": -0.863294993}, {"name": "Umberleigh", "latitude": 50.99674639, "longitude": -3.98292199}, {"name": "Wargrave", "latitude": 51.49815593, "longitude": -0.876519321}, {"name": "Warminster", "latitude": 51.2067679, "longitude": -2.176745956}, {"name": "Westbury", "latitude": 51.26697915, "longitude": -2.199193897}, {"name": "Weston Milton", "latitude": 51.34877468, "longitude": -2.943343959}, {"name": "Weston-super-Mare", "latitude": 51.34431671, "longitude": -2.971681531}, {"name": "Windsor & Eton Central", "latitude": 51.48327262, "longitude": -0.610374922}, {"name": "Worcestershire Parkway", "latitude": 52.155817, "longitude": -2.161471}, {"name": "Worle", "latitude": 51.35803344, "longitude": -2.909638886}, {"name": "Yate", "latitude": 51.54060333, "longitude": -2.432524509}, {"name": "Yatton", "latitude": 51.39101195, "longitude": -2.82779361}, {"name": "Yeoford", "latitude": 50.7768865, "longitude": -3.726083161}, {"name": "Yeovil Pen Mill", "latitude": 50.94451153, "longitude": -2.613439339}, {"name": "Yetminster", "latitude": 50.89615639, "longitude": -2.572988939}, {"name": "Brading", "latitude": 50.67835504, "longitude": -1.138722649}, {"name": "Lake", "latitude": 50.64646818, "longitude": -1.166349574}, {"name": "Ryde Esplanade", "latitude": 50.73285421, "longitude": -1.159772507}, {"name": "Ryde Pier Head", "latitude": 50.73916991, "longitude": -1.160127176}, {"name": "Ryde St Johns Road", "latitude": 50.72435057, "longitude": -1.156566865}, {"name": "Sandown", "latitude": 50.65685392, "longitude": -1.162388386}, {"name": "Shanklin", "latitude": 50.63390141, "longitude": -1.179835636}, {"name": "Smallbrook Junction", "latitude": 50.71120981, "longitude": -1.155074725}, {"name": "Acle", "latitude": 52.63470623, "longitude": 1.543930278}, {"name": "Alresford (Essex)", "latitude": 51.85400474, "longitude": 0.996704746}, {"name": "Althorne (Essex)", "latitude": 51.64787695, "longitude": 0.752499154}, {"name": "Angel Road", "latitude": 51.61241213, "longitude": -0.048784168}, {"name": "Attleborough", "latitude": 52.51426479, "longitude": 1.022679778}, {"name": "Audley End", "latitude": 52.00445153, "longitude": 0.2071621}, {"name": "Battlesbridge", "latitude": 51.62486557, "longitude": 0.56580343}, {"name": "Beccles", "latitude": 52.45854162, "longitude": 1.569508099}, {"name": "Berney Arms", "latitude": 52.58980986, "longitude": 1.630392836}, {"name": "Billericay", "latitude": 51.62889045, "longitude": 0.418635763}, {"name": "Bishops Stortford", "latitude": 51.86669627, "longitude": 0.164908628}, {"name": "Braintree", "latitude": 51.87540511, "longitude": 0.556698654}, {"name": "Braintree Freeport", "latitude": 51.86901047, "longitude": 0.567449428}, {"name": "Brampton (Suffolk)", "latitude": 52.39545244, "longitude": 1.543824133}, {"name": "Brandon", "latitude": 52.45402845, "longitude": 0.62473398}, {"name": "Brimsdown", "latitude": 51.65528087, "longitude": -0.03103974}, {"name": "Broxbourne", "latitude": 51.74691233, "longitude": -0.011077941}, {"name": "Brundall", "latitude": 52.61980542, "longitude": 1.439275107}, {"name": "Brundall Gardens", "latitude": 52.62309579, "longitude": 1.418842092}, {"name": "Buckenham", "latitude": 52.59776177, "longitude": 1.47033814}, {"name": "Bures", "latitude": 51.97099242, "longitude": 0.769005125}, {"name": "Burnham-on-Crouch", "latitude": 51.63366373, "longitude": 0.814045173}, {"name": "Bury St Edmunds", "latitude": 52.25377846, "longitude": 0.713310161}, {"name": "Cambridge", "latitude": 52.1945746, "longitude": 0.137554552}, {"name": "Cambridge North", "latitude": 52.227, "longitude": 0.1611}, {"name": "Cantley", "latitude": 52.57877082, "longitude": 1.513426069}, {"name": "Chappel & Wakes Colne", "latitude": 51.92592031, "longitude": 0.758518905}, {"name": "Chelmsford", "latitude": 51.73638236, "longitude": 0.468580339}, {"name": "Cheshunt", "latitude": 51.70287691, "longitude": -0.023951585}, {"name": "Clacton-on-Sea", "latitude": 51.79401273, "longitude": 1.154105287}, {"name": "Colchester", "latitude": 51.90061619, "longitude": 0.89347015}, {"name": "Colchester Town", "latitude": 51.8865294, "longitude": 0.904148555}, {"name": "Cressing (Essex)", "latitude": 51.85234942, "longitude": 0.577973167}, {"name": "Cromer", "latitude": 52.9301088, "longitude": 1.292833615}, {"name": "Darsham", "latitude": 52.27301314, "longitude": 1.523482074}, {"name": "Derby Road (Ipswich)", "latitude": 52.05057196, "longitude": 1.182659486}, {"name": "Diss", "latitude": 52.37367539, "longitude": 1.123713427}, {"name": "Dovercourt", "latitude": 51.93875208, "longitude": 1.280629166}, {"name": "Dullingham", "latitude": 52.20166503, "longitude": 0.366671696}, {"name": "Eccles Road", "latitude": 52.47090467, "longitude": 0.969929467}, {"name": "Elmswell", "latitude": 52.23805444, "longitude": 0.912598515}, {"name": "Elsenham (Essex)", "latitude": 51.92055206, "longitude": 0.228072408}, {"name": "Ely", "latitude": 52.39124961, "longitude": 0.266833823}, {"name": "Enfield Lock", "latitude": 51.67088281, "longitude": -0.02833834}, {"name": "Felixstowe", "latitude": 51.96708668, "longitude": 1.35045546}, {"name": "Frinton-on-Sea", "latitude": 51.83769342, "longitude": 1.243187057}, {"name": "Great Bentley", "latitude": 51.85177166, "longitude": 1.065164898}, {"name": "Great Chesterford", "latitude": 52.05982142, "longitude": 0.193523039}, {"name": "Great Yarmouth", "latitude": 52.61218298, "longitude": 1.720906278}, {"name": "Gunton", "latitude": 52.86613631, "longitude": 1.348766988}, {"name": "Haddiscoe", "latitude": 52.52889004, "longitude": 1.622411116}, {"name": "Halesworth", "latitude": 52.34669719, "longitude": 1.505698126}, {"name": "Harling Road", "latitude": 52.45371021, "longitude": 0.909152671}, {"name": "Harlow Mill", "latitude": 51.79036827, "longitude": 0.132320656}, {"name": "Harlow Town", "latitude": 51.78107298, "longitude": 0.095143791}, {"name": "Harwich International", "latitude": 51.9473035, "longitude": 1.25514186}, {"name": "Harwich Town", "latitude": 51.94415922, "longitude": 1.286700168}, {"name": "Hatfield Peverel", "latitude": 51.779875, "longitude": 0.592135742}, {"name": "Hertford East", "latitude": 51.79903842, "longitude": -0.07293406}, {"name": "Hockley", "latitude": 51.60356168, "longitude": 0.65901386}, {"name": "Hoveton & Wroxham", "latitude": 52.71559814, "longitude": 1.408008889}, {"name": "Hythe (Essex)", "latitude": 51.88565263, "longitude": 0.927535333}, {"name": "Ingatestone", "latitude": 51.66705103, "longitude": 0.384252139}, {"name": "Ipswich", "latitude": 52.05060957, "longitude": 1.144440623}, {"name": "Kelvedon", "latitude": 51.84071438, "longitude": 0.702401142}, {"name": "Kennett", "latitude": 52.27728025, "longitude": 0.490476315}, {"name": "Kirby Cross", "latitude": 51.84140899, "longitude": 1.215008216}, {"name": "Lakenheath", "latitude": 52.4475127, "longitude": 0.533892607}, {"name": "Lea Bridge", "latitude": 51.567669, "longitude": -0.035556}, {"name": "Lingwood", "latitude": 52.62223679, "longitude": 1.489863333}, {"name": "Lowestoft", "latitude": 52.47445691, "longitude": 1.749727847}, {"name": "Manea", "latitude": 52.49785289, "longitude": 0.177697575}, {"name": "Manningtree", "latitude": 51.94906612, "longitude": 1.045251421}, {"name": "March", "latitude": 52.55990987, "longitude": 0.091199581}, {"name": "Marks Tey", "latitude": 51.88095194, "longitude": 0.783345532}, {"name": "Melton (Suffolk)", "latitude": 52.10445728, "longitude": 1.338257583}, {"name": "Meridian Water", "latitude": 51.6110012, "longitude": -0.0493156}, {"name": "Mistley", "latitude": 51.94364535, "longitude": 1.081412598}, {"name": "Needham Market", "latitude": 52.15260095, "longitude": 1.05527234}, {"name": "Newmarket", "latitude": 52.23795928, "longitude": 0.406217482}, {"name": "Newport (Essex)", "latitude": 51.97987781, "longitude": 0.215142617}, {"name": "North Fambridge", "latitude": 51.64859041, "longitude": 0.681672508}, {"name": "North Walsham", "latitude": 52.81691581, "longitude": 1.384466116}, {"name": "Northumberland Park", "latitude": 51.60170041, "longitude": -0.05357565}, {"name": "Norwich", "latitude": 52.62717818, "longitude": 1.306828331}, {"name": "Oulton Broad North", "latitude": 52.47777986, "longitude": 1.715729717}, {"name": "Oulton Broad South", "latitude": 52.46974778, "longitude": 1.707982367}, {"name": "Ponders End", "latitude": 51.64274862, "longitude": -0.034473536}, {"name": "Prittlewell", "latitude": 51.55069115, "longitude": 0.71068991}, {"name": "Rayleigh", "latitude": 51.58945508, "longitude": 0.600638611}, {"name": "Reedham (Norfolk)", "latitude": 52.5645259, "longitude": 1.559666375}, {"name": "Rochford", "latitude": 51.58173343, "longitude": 0.702317091}, {"name": "Roughton Road", "latitude": 52.91804369, "longitude": 1.299803414}, {"name": "Roydon", "latitude": 51.77548937, "longitude": 0.036262005}, {"name": "Rye House", "latitude": 51.76941544, "longitude": 0.005637565}, {"name": "Salhouse", "latitude": 52.67560081, "longitude": 1.391426504}, {"name": "Sawbridgeworth", "latitude": 51.81435127, "longitude": 0.160425068}, {"name": "Saxmundham", "latitude": 52.21491694, "longitude": 1.490176361}, {"name": "Shelford (Cambs)", "latitude": 52.14884103, "longitude": 0.139981977}, {"name": "Shenfield", "latitude": 51.63088441, "longitude": 0.329854866}, {"name": "Sheringham", "latitude": 52.94088541, "longitude": 1.211327178}, {"name": "Shippea Hill", "latitude": 52.43023398, "longitude": 0.413355863}, {"name": "Soham", "latitude": 52.334139, "longitude": 0.327694}, {"name": "Somerleyton", "latitude": 52.51025111, "longitude": 1.652277542}, {"name": "South Woodham Ferrers", "latitude": 51.64966861, "longitude": 0.6066729}, {"name": "Southend Victoria", "latitude": 51.54151627, "longitude": 0.711514592}, {"name": "Southminster", "latitude": 51.66063093, "longitude": 0.835210668}, {"name": "Spooner Row", "latitude": 52.53501919, "longitude": 1.086491641}, {"name": "St Margarets (Herts)", "latitude": 51.7878436, "longitude": 0.001278525}, {"name": "Stansted Airport", "latitude": 51.8885966, "longitude": 0.26081836}, {"name": "Stansted Mountfitchet", "latitude": 51.90131018, "longitude": 0.19974645}, {"name": "Stowmarket", "latitude": 52.18972565, "longitude": 1.000016541}, {"name": "Sudbury (Suffolk)", "latitude": 52.03628673, "longitude": 0.735461571}, {"name": "Thetford", "latitude": 52.41914509, "longitude": 0.745078426}, {"name": "Thorpe-le-Soken", "latitude": 51.84777684, "longitude": 1.161641452}, {"name": "Thurston", "latitude": 52.25026767, "longitude": 0.809509861}, {"name": "Tottenham Hale", "latitude": 51.58831639, "longitude": -0.059922399}, {"name": "Trimley", "latitude": 51.9765436, "longitude": 1.319555915}, {"name": "Waltham Cross", "latitude": 51.68507019, "longitude": -0.026550053}, {"name": "Walton-on-the-Naze", "latitude": 51.84620069, "longitude": 1.267920697}, {"name": "Ware (Herts)", "latitude": 51.80796409, "longitude": -0.028772714}, {"name": "Weeley", "latitude": 51.85311063, "longitude": 1.115494594}, {"name": "West Runton", "latitude": 52.9355503, "longitude": 1.245465306}, {"name": "Westerfield", "latitude": 52.08087836, "longitude": 1.166130957}, {"name": "White Notley", "latitude": 51.8389241, "longitude": 0.595875952}, {"name": "Whittlesea", "latitude": 52.54995569, "longitude": -0.118225461}, {"name": "Whittlesford Parkway", "latitude": 52.10360009, "longitude": 0.165618606}, {"name": "Wickford", "latitude": 51.61502928, "longitude": 0.519193939}, {"name": "Wickham Market", "latitude": 52.15112006, "longitude": 1.39868855}, {"name": "Witham", "latitude": 51.80597989, "longitude": 0.639143614}, {"name": "Wivenhoe", "latitude": 51.85654276, "longitude": 0.956146009}, {"name": "Woodbridge", "latitude": 52.09046452, "longitude": 1.317791422}, {"name": "Worstead", "latitude": 52.77731601, "longitude": 1.404230785}, {"name": "Wrabness", "latitude": 51.93945868, "longitude": 1.171915943}, {"name": "Wymondham", "latitude": 52.56486065, "longitude": 1.117662312}, {"name": "Acocks Green", "latitude": 52.44933057, "longitude": -1.818984792}, {"name": "Acton Bridge (Cheshire)", "latitude": 53.26598504, "longitude": -2.60266626}, {"name": "Adderley Park", "latitude": 52.48309476, "longitude": -1.85593993}, {"name": "Albrighton", "latitude": 52.63795639, "longitude": -2.268906298}, {"name": "Alvechurch", "latitude": 52.34608475, "longitude": -1.967659996}, {"name": "Apsley", "latitude": 51.73252418, "longitude": -0.462924369}, {"name": "Aspley Guise", "latitude": 52.02124786, "longitude": -0.632327027}, {"name": "Aston", "latitude": 52.50513897, "longitude": -1.871779432}, {"name": "Atherstone", "latitude": 52.5789821, "longitude": -1.552812353}, {"name": "Barlaston", "latitude": 52.94288578, "longitude": -2.168112728}, {"name": "Barnt Green", "latitude": 52.36109392, "longitude": -1.992466617}, {"name": "Bearley", "latitude": 52.24442123, "longitude": -1.750263853}, {"name": "Bedford St Johns", "latitude": 52.12949203, "longitude": -0.467502781}, {"name": "Bedworth", "latitude": 52.47931356, "longitude": -1.467391189}, {"name": "Berkhamsted", "latitude": 51.76313738, "longitude": -0.562005134}, {"name": "Berkswell", "latitude": 52.39589581, "longitude": -1.642844919}, {"name": "Bermuda Park", "latitude": 52.504479, "longitude": -1.473879}, {"name": "Bescot Stadium", "latitude": 52.56274493, "longitude": -1.99110442}, {"name": "Bilbrook", "latitude": 52.6237314, "longitude": -2.186091807}, {"name": "Birmingham Snow Hill", "latitude": 52.48358956, "longitude": -1.899820964}, {"name": "Blake Street", "latitude": 52.604897, "longitude": -1.844908831}, {"name": "Blakedown", "latitude": 52.40618415, "longitude": -2.17635507}, {"name": "Bletchley", "latitude": 51.99534498, "longitude": -0.736316135}, {"name": "Bloxwich", "latitude": 52.61821329, "longitude": -2.011476946}, {"name": "Bloxwich North", "latitude": 52.62567399, "longitude": -2.019161042}, {"name": "Bordesley", "latitude": 52.47188154, "longitude": -1.877764833}, {"name": "Bournville", "latitude": 52.4269705, "longitude": -1.926421682}, {"name": "Bow Brickhill", "latitude": 52.00431141, "longitude": -0.696072267}, {"name": "Bricket Wood", "latitude": 51.70542949, "longitude": -0.359116315}, {"name": "Bromsgrove", "latitude": 52.32270414, "longitude": -2.048374392}, {"name": "Butlers Lane", "latitude": 52.59248151, "longitude": -1.838014434}, {"name": "Canley", "latitude": 52.39925568, "longitude": -1.547576591}, {"name": "Cannock", "latitude": 52.6861758, "longitude": -2.022146266}, {"name": "Cheddington", "latitude": 51.85792469, "longitude": -0.662146256}, {"name": "Chester Road", "latitude": 52.53565641, "longitude": -1.832473808}, {"name": "Claverdon", "latitude": 52.27710206, "longitude": -1.696566679}, {"name": "Codsall", "latitude": 52.62730174, "longitude": -2.201767313}, {"name": "Coleshill Parkway", "latitude": 52.5165359, "longitude": -1.708183055}, {"name": "Colwall", "latitude": 52.07987584, "longitude": -2.356962163}, {"name": "Coseley", "latitude": 52.5450936, "longitude": -2.085779159}, {"name": "Cosford", "latitude": 52.644968, "longitude": -2.306194661}, {"name": "Coventry Arena", "latitude": 52.448457, "longitude": -1.496628}, {"name": "Cradley Heath", "latitude": 52.46966253, "longitude": -2.090490391}, {"name": "Danzey", "latitude": 52.3243769, "longitude": -1.821241229}, {"name": "Droitwich Spa", "latitude": 52.26821535, "longitude": -2.158368535}, {"name": "Duddeston", "latitude": 52.48837183, "longitude": -1.871386376}, {"name": "Dudley Port", "latitude": 52.52466179, "longitude": -2.049480314}, {"name": "Earlswood (West Midlands)", "latitude": 52.36659566, "longitude": -1.861165822}, {"name": "Erdington", "latitude": 52.52847373, "longitude": -1.839281877}, {"name": "Fenny Stratford", "latitude": 51.99989996, "longitude": -0.717672768}, {"name": "Five Ways", "latitude": 52.47110355, "longitude": -1.912951496}, {"name": "Four Oaks", "latitude": 52.57979147, "longitude": -1.828040569}, {"name": "Garston (Hertfordshire)", "latitude": 51.68672373, "longitude": -0.381667092}, {"name": "Gravelly Hill", "latitude": 52.51500582, "longitude": -1.852593623}, {"name": "Great Malvern", "latitude": 52.10920685, "longitude": -2.318281662}, {"name": "Hagley", "latitude": 52.42240686, "longitude": -2.147009123}, {"name": "Hall Green", "latitude": 52.43678179, "longitude": -1.845499724}, {"name": "Hampton-in-Arden", "latitude": 52.42904908, "longitude": -1.699936619}, {"name": "Hamstead (Birmingham)", "latitude": 52.53107873, "longitude": -1.928901297}, {"name": "Hartford (Cheshire)", "latitude": 53.24177232, "longitude": -2.553625248}, {"name": "Hartlebury", "latitude": 52.33445625, "longitude": -2.220685153}, {"name": "Hednesford", "latitude": 52.70973133, "longitude": -2.002323872}, {"name": "Hemel Hempstead", "latitude": 51.74233574, "longitude": -0.490764101}, {"name": "Henley-in-Arden", "latitude": 52.29105066, "longitude": -1.784442316}, {"name": "How Wood (Hertfordshire)", "latitude": 51.71774404, "longitude": -0.344671247}, {"name": "Jewellery Quarter", "latitude": 52.48944377, "longitude": -1.913209845}, {"name": "Kempston Hardwick", "latitude": 52.09223124, "longitude": -0.503916852}, {"name": "Kenilworth", "latitude": 52.3422, "longitude": -1.5724}, {"name": "Kidderminster", "latitude": 52.38449634, "longitude": -2.239447445}, {"name": "Kings Langley", "latitude": 51.70635749, "longitude": -0.438410982}, {"name": "Kings Norton", "latitude": 52.4134894, "longitude": -1.933795298}, {"name": "Landywood", "latitude": 52.65713862, "longitude": -2.020653193}, {"name": "Langley Green", "latitude": 52.4938807, "longitude": -2.004963724}, {"name": "Lea Hall", "latitude": 52.48065151, "longitude": -1.786020071}, {"name": "Ledbury", "latitude": 52.04494532, "longitude": -2.424982138}, {"name": "Leighton Buzzard", "latitude": 51.91631391, "longitude": -0.677001817}, {"name": "Lichfield City", "latitude": 52.68038568, "longitude": -1.825427009}, {"name": "Lichfield Trent Valley", "latitude": 52.68690855, "longitude": -1.800236348}, {"name": "Lidlington", "latitude": 52.04154787, "longitude": -0.558918711}, {"name": "Long Buckby", "latitude": 52.29472704, "longitude": -1.08647082}, {"name": "Longbridge", "latitude": 52.39642483, "longitude": -1.981291124}, {"name": "Lye (West Midlands)", "latitude": 52.45993087, "longitude": -2.115932275}, {"name": "Malvern Link", "latitude": 52.12538603, "longitude": -2.319857656}, {"name": "Marston Green", "latitude": 52.46719715, "longitude": -1.755614357}, {"name": "Millbrook (Bedfordshire)", "latitude": 52.05384836, "longitude": -0.532692607}, {"name": "Milton Keynes Central", "latitude": 52.03429998, "longitude": -0.774142566}, {"name": "Northampton", "latitude": 52.23750925, "longitude": -0.906652319}, {"name": "Northfield", "latitude": 52.40819871, "longitude": -1.965850518}, {"name": "Norton Bridge", "latitude": 52.86671919, "longitude": -2.190546498}, {"name": "Nuneaton", "latitude": 52.52638876, "longitude": -1.463873901}, {"name": "Oakengates", "latitude": 52.69341403, "longitude": -2.45019074}, {"name": "Old Hill", "latitude": 52.47094242, "longitude": -2.056191934}, {"name": "Olton", "latitude": 52.43851888, "longitude": -1.804318398}, {"name": "Park Street", "latitude": 51.72546034, "longitude": -0.340277192}, {"name": "Penkridge", "latitude": 52.72351572, "longitude": -2.119295161}, {"name": "Perry Barr", "latitude": 52.51649543, "longitude": -1.90195665}, {"name": "Polesworth", "latitude": 52.6259325, "longitude": -1.609950777}, {"name": "Redditch", "latitude": 52.3063387, "longitude": -1.945248706}, {"name": "Ridgmont", "latitude": 52.02641391, "longitude": -0.594548449}, {"name": "Rowley Regis", "latitude": 52.47733479, "longitude": -2.030875441}, {"name": "Rugeley Town", "latitude": 52.75439398, "longitude": -1.936835706}, {"name": "Rugeley Trent Valley", "latitude": 52.77003211, "longitude": -1.92955021}, {"name": "Sandwell & Dudley", "latitude": 52.50862411, "longitude": -2.01174306}, {"name": "Selly Oak", "latitude": 52.44198975, "longitude": -1.935812243}, {"name": "Shenstone", "latitude": 52.63905886, "longitude": -1.84478804}, {"name": "Shifnal", "latitude": 52.66608646, "longitude": -2.371848866}, {"name": "Shirley", "latitude": 52.40343629, "longitude": -1.845175263}, {"name": "Small Heath", "latitude": 52.46376991, "longitude": -1.859388416}, {"name": "Smethwick Galton Bridge", "latitude": 52.50179056, "longitude": -1.980495105}, {"name": "Smethwick Rolfe Street", "latitude": 52.49639441, "longitude": -1.97064313}, {"name": "Spring Road", "latitude": 52.44342372, "longitude": -1.837384708}, {"name": "St Albans Abbey", "latitude": 51.74473607, "longitude": -0.342569292}, {"name": "Stechford", "latitude": 52.48482961, "longitude": -1.811034254}, {"name": "Stewartby", "latitude": 52.06909177, "longitude": -0.520681291}, {"name": "Stone (Staffs)", "latitude": 52.9083927, "longitude": -2.155042811}, {"name": "Stourbridge Junction", "latitude": 52.4475953, "longitude": -2.133850619}, {"name": "Stourbridge Town", "latitude": 52.45558734, "longitude": -2.141821696}, {"name": "Stratford-upon-Avon", "latitude": 52.19425764, "longitude": -1.71629633}, {"name": "Stratford-upon-Avon Parkway", "latitude": 52.207771, "longitude": -1.732885}, {"name": "Sutton Coldfield", "latitude": 52.56495316, "longitude": -1.824852952}, {"name": "Tame Bridge Parkway", "latitude": 52.55294368, "longitude": -1.976209995}, {"name": "Tamworth", "latitude": 52.63712963, "longitude": -1.687269406}, {"name": "Telford Central", "latitude": 52.68112339, "longitude": -2.440981963}, {"name": "The Hawthorns", "latitude": 52.50538276, "longitude": -1.964007294}, {"name": "The Lakes (Warks)", "latitude": 52.35947415, "longitude": -1.845769488}, {"name": "Tile Hill", "latitude": 52.39511859, "longitude": -1.596851679}, {"name": "Tipton", "latitude": 52.53045253, "longitude": -2.065702345}, {"name": "Tring", "latitude": 51.8007459, "longitude": -0.622433028}, {"name": "Tyseley", "latitude": 52.4541245, "longitude": -1.839111203}, {"name": "University (Birmingham)", "latitude": 52.45125019, "longitude": -1.936681677}, {"name": "Walsall", "latitude": 52.58441036, "longitude": -1.984753459}, {"name": "Water Orton", "latitude": 52.51859467, "longitude": -1.743097188}, {"name": "Watford Junction", "latitude": 51.66352959, "longitude": -0.396519634}, {"name": "Watford North", "latitude": 51.67570486, "longitude": -0.389928129}, {"name": "Wedgwood", "latitude": 52.95106237, "longitude": -2.17082355}, {"name": "Wellington (Shropshire)", "latitude": 52.70132167, "longitude": -2.517163693}, {"name": "Whitlocks End", "latitude": 52.3918469, "longitude": -1.851534743}, {"name": "Widney Manor", "latitude": 52.3959503, "longitude": -1.774378811}, {"name": "Wilmcote", "latitude": 52.22248701, "longitude": -1.755935181}, {"name": "Wilnecote (Staffs)", "latitude": 52.61085797, "longitude": -1.67949642}, {"name": "Winsford", "latitude": 53.1905328, "longitude": -2.494593885}, {"name": "Witton (West Midlands)", "latitude": 52.51225381, "longitude": -1.883989025}, {"name": "Woburn Sands", "latitude": 52.01816252, "longitude": -0.654077198}, {"name": "Wolverhampton", "latitude": 52.58785715, "longitude": -2.119516893}, {"name": "Wolverton", "latitude": 52.06589044, "longitude": -0.804264138}, {"name": "Wood End", "latitude": 52.34436859, "longitude": -1.844500907}, {"name": "Wootton Wawen", "latitude": 52.26587738, "longitude": -1.784564415}, {"name": "Worcester Foregate Street", "latitude": 52.19492976, "longitude": -2.221749159}, {"name": "Worcester Shrub Hill", "latitude": 52.19473652, "longitude": -2.209415022}, {"name": "Wylde Green", "latitude": 52.54644367, "longitude": -1.831842869}, {"name": "Wythall", "latitude": 52.38017701, "longitude": -1.866265184}, {"name": "Yardley Wood", "latitude": 52.42150955, "longitude": -1.854376134}, {"name": "Acton Central", "latitude": 51.5087756014, "longitude": -0.2636165401}, {"name": "Anerley", "latitude": 51.413054424, "longitude": -0.0659143281}, {"name": "Barking Riverside", "latitude": 51.519108, "longitude": 0.114764}, {"name": "Bethnal Green", "latitude": 51.524464761, "longitude": -0.0597548173}, {"name": "Brockley", "latitude": 51.464746523, "longitude": -0.037813935}, {"name": "Brondesbury", "latitude": 51.5456328731, "longitude": -0.2030812834}, {"name": "Brondesbury Park", "latitude": 51.5403506936, "longitude": -0.2104998266}, {"name": "Bruce Grove", "latitude": 51.592976158, "longitude": -0.0698302996}, {"name": "Bush Hill Park", "latitude": 51.6415266174, "longitude": -0.0692142536}, {"name": "Bushey", "latitude": 51.6457512678, "longitude": -0.3853236425}, {"name": "Caledonian Road & Barnsbury", "latitude": 51.5433544064, "longitude": -0.1151973117}, {"name": "Cambridge Heath", "latitude": 51.5319776527, "longitude": -0.0572725582}, {"name": "Camden Road", "latitude": 51.5419481621, "longitude": -0.139772041}, {"name": "Canonbury", "latitude": 51.5483736002, "longitude": -0.0919120646}, {"name": "Carpenders Park", "latitude": 51.628350627, "longitude": -0.3859416057}, {"name": "Chingford", "latitude": 51.6330943168, "longitude": 0.0099060858}, {"name": "Clapham High Street", "latitude": 51.465484156, "longitude": -0.1325177136}, {"name": "Clapton", "latitude": 51.5616497199, "longitude": -0.0570179552}, {"name": "Crouch Hill", "latitude": 51.5712596808, "longitude": -0.1169292922}, {"name": "Crystal Palace", "latitude": 51.4181107996, "longitude": -0.0726045159}, {"name": "Dalston Junction", "latitude": 51.544513, "longitude": -0.076215}, {"name": "Dalston Kingsland", "latitude": 51.5482896253, "longitude": -0.0757611164}, {"name": "Edmonton Green", "latitude": 51.6249363459, "longitude": -0.0611055096}, {"name": "Emerson Park", "latitude": 51.5689526394, "longitude": 0.2206477407}, {"name": "Enfield Town", "latitude": 51.65182349, "longitude": -0.077450555}, {"name": "Finchley Road & Frognal", "latitude": 51.5502716361, "longitude": -0.1831375287}, {"name": "Forest Hill", "latitude": 51.4389253469, "longitude": -0.0533101412}, {"name": "Gospel Oak", "latitude": 51.5553412717, "longitude": -0.1507661702}, {"name": "Hackney Central", "latitude": 51.5468832711, "longitude": -0.0559164241}, {"name": "Hackney Downs", "latitude": 51.548752152, "longitude": -0.0601638893}, {"name": "Hackney Wick", "latitude": 51.543681835, "longitude": -0.0257661725}, {"name": "Haggerston", "latitude": 51.539121, "longitude": -0.076443}, {"name": "Hampstead Heath", "latitude": 51.5558372504, "longitude": -0.1651719284}, {"name": "Harringay Green Lanes", "latitude": 51.5772479371, "longitude": -0.0979191677}, {"name": "Hatch End", "latitude": 51.6101029612, "longitude": -0.3695177068}, {"name": "Headstone Lane", "latitude": 51.6027314851, "longitude": -0.3567854507}, {"name": "Highams Park", "latitude": 51.6088901684, "longitude": 0.0001708352}, {"name": "Homerton", "latitude": 51.5465953441, "longitude": -0.0386209062}, {"name": "Honor Oak Park", "latitude": 51.4504882441, "longitude": -0.0456218436}, {"name": "Hoxton", "latitude": 51.531932, "longitude": -0.076746}, {"name": "Imperial Wharf", "latitude": 51.474251, "longitude": -0.181411}, {"name": "Kensal Rise", "latitude": 51.5342130446, "longitude": -0.2208338296}, {"name": "Kensington Olympia", "latitude": 51.4971676952, "longitude": -0.2093104275}, {"name": "Kentish Town West", "latitude": 51.5465556931, "longitude": -0.1467955756}, {"name": "Kilburn High Road", "latitude": 51.5373672145, "longitude": -0.1918709234}, {"name": "Leyton Midland Road", "latitude": 51.5693546712, "longitude": -0.0070488322}, {"name": "Leytonstone High Road", "latitude": 51.5637872962, "longitude": 0.0082906756}, {"name": "London Fields", "latitude": 51.5411581907, "longitude": -0.0577468217}, {"name": "New Cross Gate", "latitude": 51.475311265, "longitude": -0.0403846644}, {"name": "Norwood Junction", "latitude": 51.397020224, "longitude": -0.0752164235}, {"name": "Penge West", "latitude": 51.4175568838, "longitude": -0.0608342187}, {"name": "Rectory Road", "latitude": 51.5587800243, "longitude": -0.0683933373}, {"name": "Rotherhithe", "latitude": 51.500975, "longitude": -0.053555}, {"name": "Seven Sisters", "latitude": 51.5825108428, "longitude": -0.0748929164}, {"name": "Shadwell", "latitude": 51.510931, "longitude": -0.057454}, {"name": "Shepherd's Bush", "latitude": 51.5052892923, "longitude": -0.2176522962}, {"name": "Shoreditch High Street", "latitude": 51.522922, "longitude": -0.075684}, {"name": "Silver Street", "latitude": 51.6152343768, "longitude": -0.0726416423}, {"name": "South Acton", "latitude": 51.4996997762, "longitude": -0.2701569616}, {"name": "South Hampstead", "latitude": 51.5414759012, "longitude": -0.1784404686}, {"name": "South Tottenham", "latitude": 51.5804187998, "longitude": -0.0718059032}, {"name": "Southbury", "latitude": 51.6484532766, "longitude": -0.0530188969}, {"name": "St James Street (Walthamstow)", "latitude": 51.5806709779, "longitude": -0.032823574}, {"name": "Stamford Hill", "latitude": 51.5744735869, "longitude": -0.0766757768}, {"name": "Stoke Newington", "latitude": 51.5652387025, "longitude": -0.0728811564}, {"name": "Surrey Quays", "latitude": 51.492791, "longitude": -0.048142}, {"name": "Sydenham (London)", "latitude": 51.4272498924, "longitude": -0.0542380452}, {"name": "Theobalds Grove", "latitude": 51.6924570037, "longitude": -0.0348236151}, {"name": "Turkey Street", "latitude": 51.6726369884, "longitude": -0.0472089578}, {"name": "Upper Holloway", "latitude": 51.563630354, "longitude": -0.1290758459}, {"name": "Walthamstow Central", "latitude": 51.5829711924, "longitude": -0.0198773082}, {"name": "Walthamstow Queen's Road", "latitude": 51.5815091919, "longitude": -0.023838128}, {"name": "Wandsworth Road", "latitude": 51.4698826105, "longitude": -0.137665635}, {"name": "Wanstead Park", "latitude": 51.5516982552, "longitude": 0.0262219773}, {"name": "Wapping", "latitude": 51.503718, "longitude": -0.05632}, {"name": "Watford High Street", "latitude": 51.6526551364, "longitude": -0.3917136888}, {"name": "West Croydon", "latitude": 51.3784284699, "longitude": -0.102581278}, {"name": "West Hampstead", "latitude": 51.5474733358, "longitude": -0.1911817701}, {"name": "White Hart Lane", "latitude": 51.6050441162, "longitude": -0.0709070371}, {"name": "Willesden Junction", "latitude": 51.5320332397, "longitude": -0.2432670615}, {"name": "Wood Street", "latitude": 51.5867141926, "longitude": -0.00195833}, {"name": "Woodgrange Park", "latitude": 51.5487621436, "longitude": 0.04513119}, {"name": "Amersham", "latitude": 51.6742069133, "longitude": -0.607590127}, {"name": "Blackhorse Road", "latitude": 51.5862075528, "longitude": -0.0412458332}, {"name": "Canada Water", "latitude": 51.498231, "longitude": -0.050791}, {"name": "Chalfont & Latimer", "latitude": 51.6681092656, "longitude": -0.5605191022}, {"name": "Chorleywood", "latitude": 51.6542489506, "longitude": -0.5183116683}, {"name": "Farringdon", "latitude": 51.52053, "longitude": -0.10504}, {"name": "Greenford", "latitude": 51.542318953, "longitude": -0.3445415183}, {"name": "Gunnersbury", "latitude": 51.4918691216, "longitude": -0.2757834472}, {"name": "Harlesden", "latitude": 51.5365728794, "longitude": -0.2582328517}, {"name": "Harrow & Wealdstone", "latitude": 51.5916203758, "longitude": -0.3340730185}, {"name": "Harrow-on-the-Hill", "latitude": 51.5790671372, "longitude": -0.3359898856}, {"name": "Highbury & Islington", "latitude": 51.546739948, "longitude": -0.1020766012}, {"name": "Kensal Green", "latitude": 51.5306617884, "longitude": -0.2238558628}, {"name": "Kentish Town", "latitude": 51.5500363746, "longitude": -0.1394420761}, {"name": "Kenton", "latitude": 51.5814960199, "longitude": -0.3171373274}, {"name": "Kew Gardens", "latitude": 51.4776154969, "longitude": -0.2849616483}, {"name": "Moorgate", "latitude": 51.519563, "longitude": -0.09024}, {"name": "North Wembley", "latitude": 51.5626022528, "longitude": -0.3039843835}, {"name": "Old Street", "latitude": 51.5258365574, "longitude": -0.0885295811}, {"name": "Queens Park (London)", "latitude": 51.5339715337, "longitude": -0.2049825011}, {"name": "Rickmansworth", "latitude": 51.6402466027, "longitude": -0.4732729561}, {"name": "South Kenton", "latitude": 51.570220608, "longitude": -0.3084627894}, {"name": "South Ruislip", "latitude": 51.5569265569, "longitude": -0.3992477137}, {"name": "Stonebridge Park", "latitude": 51.5441168147, "longitude": -0.2758280111}, {"name": "Wembley Central", "latitude": 51.5523310827, "longitude": -0.2964185637}, {"name": "West Brompton", "latitude": 51.4873327686, "longitude": -0.1954357105}, {"name": "West Ham", "latitude": 51.5285764835, "longitude": 0.0058754718}, {"name": "West Ruislip", "latitude": 51.5697562213, "longitude": -0.4377576334}, {"name": "Whitechapel", "latitude": 51.519467, "longitude": -0.059757122}, {"name": "Aigburth", "latitude": 53.3645833, "longitude": -2.927160737}, {"name": "Ainsdale", "latitude": 53.60183287, "longitude": -3.042669326}, {"name": "Aintree", "latitude": 53.47400907, "longitude": -2.956664741}, {"name": "Aughton Park", "latitude": 53.55448798, "longitude": -2.895078195}, {"name": "Bache", "latitude": 53.20933376, "longitude": -2.892360673}, {"name": "Bank Hall", "latitude": 53.43780206, "longitude": -2.987464984}, {"name": "Bebington", "latitude": 53.35767221, "longitude": -3.003642726}, {"name": "Bidston", "latitude": 53.40914752, "longitude": -3.078570263}, {"name": "Birkdale", "latitude": 53.63353433, "longitude": -3.014715579}, {"name": "Birkenhead Central", "latitude": 53.38900094, "longitude": -3.019416498}, {"name": "Birkenhead Hamilton Square", "latitude": 53.39471293, "longitude": -3.013687789}, {"name": "Birkenhead North", "latitude": 53.40484222, "longitude": -3.057401666}, {"name": "Birkenhead Park", "latitude": 53.3978198, "longitude": -3.039179402}, {"name": "Blundellsands & Crosby", "latitude": 53.48769659, "longitude": -3.03986789}, {"name": "Bootle New Strand", "latitude": 53.45301817, "longitude": -2.995347712}, {"name": "Bootle Oriel Road", "latitude": 53.44762574, "longitude": -2.995221639}, {"name": "Bromborough", "latitude": 53.32184733, "longitude": -2.987788553}, {"name": "Bromborough Rake", "latitude": 53.32992372, "longitude": -2.989476735}, {"name": "Brunswick", "latitude": 53.38217523, "longitude": -2.975653248}, {"name": "Capenhurst", "latitude": 53.26018901, "longitude": -2.942291644}, {"name": "Conway Park", "latitude": 53.39337776, "longitude": -3.022679178}, {"name": "Cressington", "latitude": 53.35876717, "longitude": -2.912008275}, {"name": "Eastham Rake", "latitude": 53.30759993, "longitude": -2.981171169}, {"name": "Ellesmere Port", "latitude": 53.28220693, "longitude": -2.896427988}, {"name": "Fazakerley", "latitude": 53.46878354, "longitude": -2.93545612}, {"name": "Formby", "latitude": 53.55349222, "longitude": -3.070916313}, {"name": "Freshfield", "latitude": 53.56606861, "longitude": -3.071838001}, {"name": "Green Lane", "latitude": 53.38327334, "longitude": -3.01642303}, {"name": "Hall Road", "latitude": 53.49838894, "longitude": -3.050682508}, {"name": "Hightown", "latitude": 53.52512005, "longitude": -3.057076334}, {"name": "Hillside", "latitude": 53.62212307, "longitude": -3.024723262}, {"name": "Hooton", "latitude": 53.29721539, "longitude": -2.977016928}, {"name": "Hoylake", "latitude": 53.39022996, "longitude": -3.178843698}, {"name": "Hunts Cross", "latitude": 53.36062783, "longitude": -2.854946075}, {"name": "Kirkby (Merseyside)", "latitude": 53.48620351, "longitude": -2.902833396}, {"name": "Kirkdale", "latitude": 53.4405479, "longitude": -2.981506598}, {"name": "Leasowe", "latitude": 53.40805676, "longitude": -3.099603994}, {"name": "Little Sutton", "latitude": 53.28553102, "longitude": -2.943299129}, {"name": "Liverpool Central", "latitude": 53.40461053, "longitude": -2.979159936}, {"name": "Liverpool James Street", "latitude": 53.40477452, "longitude": -2.991964872}, {"name": "Liverpool South Parkway", "latitude": 53.35758121, "longitude": -2.889294039}, {"name": "Maghull", "latitude": 53.50648347, "longitude": -2.930857798}, {"name": "Maghull North", "latitude": 53.516, "longitude": -2.922}, {"name": "Manor Road", "latitude": 53.39479742, "longitude": -3.171450295}, {"name": "Meols", "latitude": 53.39945033, "longitude": -3.154281087}, {"name": "Moorfields", "latitude": 53.40857308, "longitude": -2.989179871}, {"name": "Moreton (Merseyside)", "latitude": 53.40793134, "longitude": -3.113140165}, {"name": "New Brighton", "latitude": 53.43727598, "longitude": -3.049174288}, {"name": "Old Roan", "latitude": 53.48690801, "longitude": -2.951077083}, {"name": "Ormskirk", "latitude": 53.56896888, "longitude": -2.88179342}, {"name": "Orrell Park", "latitude": 53.46191022, "longitude": -2.963321542}, {"name": "Overpool", "latitude": 53.28414758, "longitude": -2.924818617}, {"name": "Port Sunlight", "latitude": 53.3492693, "longitude": -2.99803707}, {"name": "Rice Lane", "latitude": 53.45778328, "longitude": -2.962324455}, {"name": "Rock Ferry", "latitude": 53.37289259, "longitude": -3.010914905}, {"name": "Sandhills", "latitude": 53.42994809, "longitude": -2.991497322}, {"name": "Seaforth & Litherland", "latitude": 53.46611293, "longitude": -3.005295121}, {"name": "Southport", "latitude": 53.64652777, "longitude": -3.00244063}, {"name": "Spital", "latitude": 53.33995485, "longitude": -2.993914447}, {"name": "St Michaels", "latitude": 53.37561787, "longitude": -2.952804749}, {"name": "Town Green", "latitude": 53.54282147, "longitude": -2.904490485}, {"name": "Wallasey Grove Road", "latitude": 53.42801467, "longitude": -3.069716325}, {"name": "Wallasey Village", "latitude": 53.422896, "longitude": -3.069136355}, {"name": "Walton (Merseyside)", "latitude": 53.45622746, "longitude": -2.965753228}, {"name": "Waterloo (Merseyside)", "latitude": 53.47496593, "longitude": -3.025543946}, {"name": "West Kirby", "latitude": 53.37319127, "longitude": -3.183769494}, {"name": "Birmingham New Street", "latitude": 52.47819419, "longitude": -1.898360826}, {"name": "Bristol Temple Meads", "latitude": 51.44914299, "longitude": -2.581322795}, {"name": "Clapham Junction", "latitude": 51.46419065, "longitude": -0.170247351}, {"name": "Edinburgh", "latitude": 55.95238716, "longitude": -3.188221921}, {"name": "Glasgow Central", "latitude": 55.85974143, "longitude": -4.257636004}, {"name": "Guildford", "latitude": 51.23696786, "longitude": -0.580420682}, {"name": "Leeds", "latitude": 53.79489697, "longitude": -1.547435079}, {"name": "Liverpool Lime Street", "latitude": 53.40731898, "longitude": -2.977732837}, {"name": "London Bridge", "latitude": 51.50509647, "longitude": -0.085060385}, {"name": "London Cannon Street", "latitude": 51.51058265, "longitude": -0.090609398}, {"name": "London Charing Cross", "latitude": 51.50768803, "longitude": -0.124105728}, {"name": "London Euston", "latitude": 51.52837626, "longitude": -0.134558479}, {"name": "London Kings Cross", "latitude": 51.53088842, "longitude": -0.122921342}, {"name": "London Liverpool Street", "latitude": 51.51802304, "longitude": -0.081995697}, {"name": "London Paddington", "latitude": 51.51645141, "longitude": -0.176844743}, {"name": "London St Pancras International", "latitude": 51.53062434, "longitude": -0.125527439}, {"name": "London Victoria", "latitude": 51.49526139, "longitude": -0.144540593}, {"name": "London Waterloo", "latitude": 51.503507, "longitude": -0.113897}, {"name": "Manchester Piccadilly", "latitude": 53.47671998, "longitude": -2.228977818}, {"name": "Reading", "latitude": 51.45878189, "longitude": -0.971854374}, {"name": "Accrington", "latitude": 53.7532, "longitude": -2.37001}, {"name": "Acklington", "latitude": 55.3071, "longitude": -1.65184}, {"name": "Adlington (Cheshire)", "latitude": 53.31957, "longitude": -2.13356}, {"name": "Adlington (Lancashire)", "latitude": 53.6129455, "longitude": -2.603061143}, {"name": "Adwick", "latitude": 53.57302304, "longitude": -1.181475098}, {"name": "Alderley Edge", "latitude": 53.30379521, "longitude": -2.236800428}, {"name": "Allens West", "latitude": 54.52411689, "longitude": -1.36342611}, {"name": "Alnmouth", "latitude": 55.39241161, "longitude": -1.636879701}, {"name": "Althorpe", "latitude": 53.58528974, "longitude": -0.732586396}, {"name": "Altrincham", "latitude": 53.3874545, "longitude": -2.347281454}, {"name": "Ansdell & Fairhaven", "latitude": 53.74157235, "longitude": -2.993056487}, {"name": "Apperley Bridge", "latitude": 53.84138, "longitude": -1.703065}, {"name": "Appleby", "latitude": 54.58035366, "longitude": -2.486692409}, {"name": "Appley Bridge", "latitude": 53.578696, "longitude": -2.719239}, {"name": "Ardwick", "latitude": 53.4713637, "longitude": -2.21388356}, {"name": "Armathwaite", "latitude": 54.8091136, "longitude": -2.771682007}, {"name": "Arram", "latitude": 53.88458217, "longitude": -0.42685721}, {"name": "Ashburys", "latitude": 53.47139715, "longitude": -2.194298663}, {"name": "Ashley", "latitude": 53.35601141, "longitude": -2.341015897}, {"name": "Ashton-under-Lyne", "latitude": 53.49128474, "longitude": -2.093404009}, {"name": "Askam", "latitude": 54.18904409, "longitude": -3.204522253}, {"name": "Aspatria", "latitude": 54.75932254, "longitude": -3.331737575}, {"name": "Atherton", "latitude": 53.52901633, "longitude": -2.478177715}, {"name": "Baildon", "latitude": 53.84969683, "longitude": -1.753714588}, {"name": "Bamber Bridge", "latitude": 53.72678683, "longitude": -2.660769189}, {"name": "Bamford", "latitude": 53.33901464, "longitude": -1.689082177}, {"name": "Bardon Mill", "latitude": 54.97449387, "longitude": -2.346497864}, {"name": "Bare Lane", "latitude": 54.07533066, "longitude": -2.835940378}, {"name": "Barnsley", "latitude": 53.55462662, "longitude": -1.477078446}, {"name": "Barrow-in-Furness", "latitude": 54.1190048, "longitude": -3.226129301}, {"name": "Batley", "latitude": 53.70914805, "longitude": -1.622728738}, {"name": "Battersby", "latitude": 54.45768979, "longitude": -1.092979104}, {"name": "Belle Vue", "latitude": 53.46216055, "longitude": -2.180399301}, {"name": "Bempton", "latitude": 54.12829569, "longitude": -0.180427625}, {"name": "Ben Rhydding", "latitude": 53.92617737, "longitude": -1.79742789}, {"name": "Bentham", "latitude": 54.11579786, "longitude": -2.510912928}, {"name": "Bentley (South Yorkshire)", "latitude": 53.54369067, "longitude": -1.15155621}, {"name": "Berry Brow", "latitude": 53.62105489, "longitude": -1.79343383}, {"name": "Bescar Lane", "latitude": 53.62355392, "longitude": -2.914683023}, {"name": "Beverley", "latitude": 53.84230315, "longitude": -0.42388287}, {"name": "Billingham", "latitude": 54.60632344, "longitude": -1.278542318}, {"name": "Bingley", "latitude": 53.84840967, "longitude": -1.836944749}, {"name": "Birchwood", "latitude": 53.41196101, "longitude": -2.528015343}, {"name": "Bishop Auckland", "latitude": 54.65747215, "longitude": -1.677565289}, {"name": "Blackburn", "latitude": 53.74652637, "longitude": -2.479127511}, {"name": "Blackpool North", "latitude": 53.82192857, "longitude": -3.049280829}, {"name": "Blackpool Pleasure Beach", "latitude": 53.78824428, "longitude": -3.053813568}, {"name": "Blackpool South", "latitude": 53.7986229, "longitude": -3.049063314}, {"name": "Blackrod", "latitude": 53.59153702, "longitude": -2.569533036}, {"name": "Blaydon", "latitude": 54.96578715, "longitude": -1.712587399}, {"name": "Bolton", "latitude": 53.57415749, "longitude": -2.42582971}, {"name": "Bolton-upon-Dearne", "latitude": 53.51901464, "longitude": -1.312227491}, {"name": "Bootle (Cumbria)", "latitude": 54.29035629, "longitude": -3.394902231}, {"name": "Bradford Forster Square", "latitude": 53.79693456, "longitude": -1.752961084}, {"name": "Bradford Interchange", "latitude": 53.79108522, "longitude": -1.749595186}, {"name": "Bramhall", "latitude": 53.35998386, "longitude": -2.162236693}, {"name": "Bramley (West Yorkshire)", "latitude": 53.80599077, "longitude": -1.63810801}, {"name": "Brampton (Cumbria)", "latitude": 54.93263673, "longitude": -2.703813718}, {"name": "Braystones", "latitude": 54.43954367, "longitude": -3.543374836}, {"name": "Bredbury", "latitude": 53.42296542, "longitude": -2.109807325}, {"name": "Bridlington", "latitude": 54.08414656, "longitude": -0.198719149}, {"name": "Brierfield", "latitude": 53.82454874, "longitude": -2.236946834}, {"name": "Brigg", "latitude": 53.54916351, "longitude": -0.48611936}, {"name": "Brighouse", "latitude": 53.69821366, "longitude": -1.779439708}, {"name": "Brinnington", "latitude": 53.43103407, "longitude": -2.130899716}, {"name": "Broad Green", "latitude": 53.40618138, "longitude": -2.893466308}, {"name": "Broadbottom", "latitude": 53.44099228, "longitude": -2.016514951}, {"name": "Brockholes", "latitude": 53.59716619, "longitude": -1.770295861}, {"name": "Bromley Cross (Lancs)", "latitude": 53.61376394, "longitude": -2.409600356}, {"name": "Broomfleet", "latitude": 53.74015046, "longitude": -0.673345968}, {"name": "Bryn", "latitude": 53.49945144, "longitude": -2.648183788}, {"name": "Buckshaw Parkway", "latitude": 53.672825, "longitude": -2.66447}, {"name": "Burley Park", "latitude": 53.81217572, "longitude": -1.577912469}, {"name": "Burley-in-Wharfedale", "latitude": 53.90838882, "longitude": -1.753521668}, {"name": "Burnage", "latitude": 53.42192326, "longitude": -2.215140157}, {"name": "Burneside (Cumbria)", "latitude": 54.35530768, "longitude": -2.76621552}, {"name": "Burnley Barracks", "latitude": 53.79124886, "longitude": -2.258010878}, {"name": "Burnley Central", "latitude": 53.79352327, "longitude": -2.244969486}, {"name": "Burnley Manchester Road", "latitude": 53.78497641, "longitude": -2.248865862}, {"name": "Burscough Bridge", "latitude": 53.60521267, "longitude": -2.841741809}, {"name": "Burscough Junction", "latitude": 53.59803326, "longitude": -2.840087989}, {"name": "Buxton", "latitude": 53.26074338, "longitude": -1.912870681}, {"name": "Cark & Cartmel", "latitude": 54.17756612, "longitude": -2.972830022}, {"name": "Carnforth", "latitude": 54.12969095, "longitude": -2.771228496}, {"name": "Castleford", "latitude": 53.72409345, "longitude": -1.354656247}, {"name": "Castleton (Manchester)", "latitude": 53.5918608, "longitude": -2.178231774}, {"name": "Castleton Moor", "latitude": 54.46728813, "longitude": -0.946647941}, {"name": "Cattal", "latitude": 53.99749566, "longitude": -1.319772686}, {"name": "Chapel-en-le-Frith", "latitude": 53.31224546, "longitude": -1.918769577}, {"name": "Chapeltown (South Yorkshire)", "latitude": 53.46235417, "longitude": -1.466268507}, {"name": "Chassen Road", "latitude": 53.44617874, "longitude": -2.368237145}, {"name": "Chathill", "latitude": 55.53672988, "longitude": -1.706378108}, {"name": "Cheadle Hulme", "latitude": 53.37594578, "longitude": -2.188302225}, {"name": "Chelford (Cheshire)", "latitude": 53.27086569, "longitude": -2.279608703}, {"name": "Cherry Tree", "latitude": 53.7328804, "longitude": -2.518385495}, {"name": "Chester-le-Street", "latitude": 54.85459856, "longitude": -1.578018751}, {"name": "Chinley", "latitude": 53.34030561, "longitude": -1.944399045}, {"name": "Chorley", "latitude": 53.65255337, "longitude": -2.626775381}, {"name": "Church & Oswaldtwistle", "latitude": 53.75035199, "longitude": -2.390909816}, {"name": "Church Fenton", "latitude": 53.82633993, "longitude": -1.227441339}, {"name": "Clapham (North Yorkshire)", "latitude": 54.10539906, "longitude": -2.409841839}, {"name": "Clifton (Manchester)", "latitude": 53.52223401, "longitude": -2.314143209}, {"name": "Clitheroe", "latitude": 53.87347985, "longitude": -2.394338568}, {"name": "Colne", "latitude": 53.85484616, "longitude": -2.1811716}, {"name": "Commondale", "latitude": 54.48182216, "longitude": -0.974983944}, {"name": "Congleton", "latitude": 53.15787409, "longitude": -2.192581008}, {"name": "Conisbrough", "latitude": 53.48932729, "longitude": -1.234332884}, {"name": "Cononley", "latitude": 53.91726977, "longitude": -2.011236378}, {"name": "Corbridge", "latitude": 54.96630507, "longitude": -2.018556061}, {"name": "Corkickle", "latitude": 54.54167907, "longitude": -3.582164579}, {"name": "Cottingham", "latitude": 53.78166481, "longitude": -0.406425104}, {"name": "Cottingley", "latitude": 53.76783456, "longitude": -1.587702959}, {"name": "Cramlington", "latitude": 55.0877699, "longitude": -1.598597623}, {"name": "Cross Gates", "latitude": 53.80491752, "longitude": -1.450295749}, {"name": "Crossflatts", "latitude": 53.85847792, "longitude": -1.844887769}, {"name": "Croston", "latitude": 53.66756883, "longitude": -2.77774904}, {"name": "Crowle", "latitude": 53.58975345, "longitude": -0.81736252}, {"name": "Cuddington", "latitude": 53.23993338, "longitude": -2.59930339}, {"name": "Daisy Hill", "latitude": 53.53946635, "longitude": -2.515868885}, {"name": "Dalston (Cumbria)", "latitude": 54.84617418, "longitude": -2.988848877}, {"name": "Dalton (Cumbria)", "latitude": 54.15424234, "longitude": -3.179010182}, {"name": "Danby", "latitude": 54.46643039, "longitude": -0.910719291}, {"name": "Darnall", "latitude": 53.38111164, "longitude": -1.410652924}, {"name": "Darton", "latitude": 53.58838039, "longitude": -1.531651865}, {"name": "Darwen", "latitude": 53.69804478, "longitude": -2.464945018}, {"name": "Davenport", "latitude": 53.39082838, "longitude": -2.152579926}, {"name": "Deansgate", "latitude": 53.47409585, "longitude": -2.251066103}, {"name": "Deighton", "latitude": 53.66885819, "longitude": -1.75219726}, {"name": "Delamere", "latitude": 53.2287892, "longitude": -2.666559449}, {"name": "Denby Dale", "latitude": 53.57264355, "longitude": -1.663208663}, {"name": "Dent", "latitude": 54.28241606, "longitude": -2.363597216}, {"name": "Denton", "latitude": 53.45692242, "longitude": -2.130226303}, {"name": "Dinsdale", "latitude": 54.51473198, "longitude": -1.467067384}, {"name": "Dinting", "latitude": 53.44934927, "longitude": -1.970306404}, {"name": "Disley", "latitude": 53.35819889, "longitude": -2.042476966}, {"name": "Dodworth", "latitude": 53.54416241, "longitude": -1.530932801},